datetime,city,state,country,shape,duration (seconds),duration (hours/min),comments,date posted,latitude,longitude
10/11/2008 19:00,dover,md,us,sphere,7200,2 hours?,freinds and familes see UFO,10/31/2008,39.5122222,-76.7697222
10/11/2009 04:00,crisfield,md,us,light,600,5 to 10 min,A bright light moving across the sky getting closer stopped on a dime got brighter and took off with no sounds at all,12/12/2009,37.9833333,-75.8541667
10/11/2012 19:30,arbutus,md,us,light,300,5 minutes,Moving star and strange man,10/30/2012,39.2544444,-76.7002778
10/1/1979 19:00,columbia,md,us,rectangle,120,2 minutes,Large&#44 low-flying&#44 slow moving&#44 silent black rectangle with no lights,2/4/2013,39.2402778,-76.8397222
10/1/2000 20:00,wheaton,md,us,triangle,300,5 minutes,UFO sighted in Wheaton&#44 MD,10/30/2006,39.0397222,-77.0555556
10/1/2002 09:00,germantown,md,us,cigar,180,3 minutes,me and boyfriend out on the back deck drinking coffee and we see a cigar shaped craft flying overhead....it struck me as odd because it,8/11/2004,39.1730556,-77.2719444
10/1/2006 19:20,monkton,md,us,oval,480,5-8 minutes,7-10 objects&#44 Multicolored Lights&#44 No Noise&#44 Oval Shaped,10/30/2006,39.5786111,-76.6158333
10/1/2013 06:35,bel air,md,us,flash,4,2-4 seconds,Flashing ball that goes out and continues as a black dot at slower speed then a meteor.,10/3/2013,39.5358333,-76.3486111
10/12/2004 07:37,rockville,md,us,light,10,10 sec,it was not a satilite,2/24/2005,39.0838889,-77.1530556
10/12/2012 20:00,cumberland,md,us,light,10,6 to 10 seconds,Stunned to what I seen. Bright. Semi stationary light. Very bright. Seen no form. Just the light.,10/30/2012,39.6527778,-78.7627778
10/13/1990 16:00,rising sun,md,us,sphere,600,10 minutes,These were four brightly luminous objects observed in the broad daylight.  They were lined up in a row-vertically.  They were all spher,5/24/1999,39.6977778,-76.0630556
10/13/2012 01:00,bel air,md,us,light,8,5-8 seconds,Bright white orb traveling fast over Bel Air,10/30/2012,39.5358333,-76.3486111
10/13/2012 10:00,columbia,md,us,triangle,600,10 minute,Driving down Broken Land Parkway heading south&#44 my fianc&eacute;e&#44 his cousin who was visiting from out of town and I noticed a formation of a,10/30/2012,39.2402778,-76.8397222
10/13/2013 19:45,pasadena,md,us,circle,60,1 minute,Orange object with white streaks observed near BWI airport.,10/14/2013,39.1072222,-76.5713889
10/15/1949 20:00,baltimore,md,us,cigar,180,2-3 minutes,It was around 8:PM and I was walking home&#44it was a full moon but something made me lookup&#44 there was no noise&#44 but an object came in fr,3/4/2008,39.2902778,-76.6125
10/15/1975 02:30,rockville,md,us,disk,7200,2 hours at least,Floating abduction out of bed into a silver saucer; US military human beings on board&#44 some kind of head surgery performed.,8/5/2012,39.0838889,-77.1530556
10/15/1975 03:00,rockville,md,us,disk,7200,1-2 hours,Abduction middle of night encounter human atired in US Military Uniforms (Airforce) experience some type of Brain Surgery&#33,12/2/2000,39.0838889,-77.1530556
10/15/1997 21:30,waldorf,md,us,light,420,7 minutes,Three circular lights fuse into one and become an intensly bright beacon,4/27/2004,38.6244444,-76.9394444
10/15/2004 21:12,baltimore,md,us,chevron,15,15 seconds,Chevron sighted off I-95 north of Baltimore MD.,10/27/2004,39.2902778,-76.6125
10/15/2011 02:00,largo,md,us,circle,7200,2 hours,This was some time ago but one night back in October I was in bed and had my window up and I was lay down and look to my  right out my,8/5/2012,38.8975,-76.8305556
10/15/2012 00:15,towson,md,us,circle,1800,30 minutes,Orange fixated circle hung above us (in the dist) as we stargazed then.. disappeared,10/30/2012,39.4013889,-76.6022222
10/15/2012 08:00,hagerstown,md,us,circle,300,5 minutes,Bright orange light with no sound.,12/20/2012,39.6416667,-77.7202778
10/15/2013 15:00,bethesda,md,us,disk,7,7 seconds,Saucer flying low and fast over Betheda/Rockville area in broad daylight.,12/5/2013,38.9805556,-77.1005556
10/16/2003 08:15,stevensville,md,us,light,600,5-10 mins,We see these lights very often at night looking towards the bay just to the right and above the Baltimore area. These whitish orange li,10/31/2003,38.9805556,-76.3147222
10/16/2007 06:55,wheaton,md,us,light,60,<1minute,Moving point of light in vicinity of Wheaton/Glenmont Metro,11/28/2007,39.0397222,-77.0555556
10/17/2012 11:25,ft. meade/bwi,md,NA,unknown,718,11:58,Object above Ft Meade/BWI is fairly stationary with &quot;spidery&quot; white light and looks the same whether viewed from inside or out,10/30/2012,39.177404,-76.668392
10/17/2012 14:00,hagerstown,md,us,disk,4,3-4 seconds,Dark sauser shape object with dome coasting along 40 degree angle up from horizen moving west to east. .,10/30/2012,39.6416667,-77.7202778
10/17/2012 23:30,williamsport,md,us,cigar,7200,2 hours,Hovering cigar shape craft with lights.,10/30/2012,39.6005556,-77.8208333
10/18/2011 06:00,pasadena,md,us,light,2,1-2 seconds,On the morning of 10/18 /11 between 600 &amp; 630 hrs I saw a bright object shoot across the sky.,10/25/2011,39.1072222,-76.5713889
10/18/2012 20:15,wolfsville,md,us,triangle,5,5 seconds,At around  8:15PM eastern time I was outside and all the sudden I heard a really loud noise that sounded almost like a freight train. I,10/30/2012,39.5741667,-77.5508333
10/19/1997 02:00,crofton,md,us,other,7200,approx. 2 hrs.,I heard a strange noise in kitchen.I thought that my cat knocked over the trash bin again.So I whipped my silk rob on&#44 and walked down,1/28/1999,39.0016667,-76.6877778
10/19/2008 17:00,philadelphia/baltimore (between),md,NA,light,3,2-3 seconds,Large ball of bright light shot overhead and disappeared over the trees on the distant horizon.,10/31/2008,39.299166,-76.578899
10/19/2012 18:00,severn,md,us,other,300,3-5 minutes,Three random chunks of car-sized &quot;brown mold&quot; motionless in a clear blue sky near BWI.  ((NUFORC Note:  USAF Acad. Grad.  PD)),10/30/2012,39.1369444,-76.6986111
10/19/2012 19:15,butler,md,us,light,180,3 minutes,3 redish lights spotted in Butler MD at 7:15 pm on 10/19/12,10/30/2012,39.5352778,-76.7283333
10/19/2013 21:11,poolesville,md,us,sphere,3600,1+ hours,2 large spheres of light moving quickly&#44 followed by 4 silent orange lights in L formation an hour later.,10/23/2013,39.1458333,-77.4172222
10/20/1965 15:00,joppatown,md,NA,fireball,120,2 minutes,controled fireball,8/5/2009,39.415,-76.356111
10/20/2006 19:07,hanover,md,us,light,240,3 to 4 minutes,Bright white light moving west to east over central Maryland,10/30/2006,39.1927778,-76.7244444
10/20/2012 18:30,ft. meade,md,NA,formation,900,15 minutes,Dozens of Orange Lights over Fort Meade&#44 Military Base.,10/30/2012,39.11376,-76.726777
10/20/2012 19:00,severn,md,us,circle,300,5 minutes,12 red lights flying,10/30/2012,39.1369444,-76.6986111
10/20/2012 22:30,cumberland,md,us,light,1800,30 minutes,Hovering flashing object with sudden movement,10/30/2012,39.6527778,-78.7627778
10/21/1973 14:30,federalsburg,md,us,disk,300,5 mins.,Saucer spotted in Federalsburg MD,6/10/2010,38.6941667,-75.7725
10/21/1973 17:30,baltimore,md,us,disk,900,15 minutes,Oct 1973 Baltimore&#44 Md  Discw/dome/portholewindows/interiorLight.  Noiseless&#44 hovering&#44 close by&#44 huge,8/28/2002,39.2902778,-76.6125
10/21/1973 18:30,baltimore,md,us,disk,480,8 minutes,&quot;Jupiter Two&quot;-like spacecraft&#44 flew noiselessly&#44 slowly just over the field in our backyard.,4/27/2007,39.2902778,-76.6125
10/21/2007 21:40,hagerstown (near),md,us,flash,5,3-5 seconds,large white flash of light speeding across sky and disappeared within 3-5 seconds,11/28/2007,39.6416667,-77.7202778
10/21/2008 16:54,mt. airy,md,us,light,2,2 seconds,faint light move in a zig zag in the sky and at the end it flashed really bright and disappeared Left a trail in the sky very clear out,10/31/2008,39.3761111,-77.155
10/2/2010 21:00,severn/glen burnie (bwi area),md,NA,triangle,60,1 minute,Triangular shaped craft seen hovering near a highway. Large and did not move.,11/21/2010,39.123684,-76.43317
10/2/2013 06:45,upper marlboro,md,us,circle,2,2 seconds,I was painting my house and was on a step ladder about 6 ft high and saw an orange light that looked like it was rotating vertically.,10/23/2013,38.8158333,-76.75
10/2/2013 22:45,hagerstown,md,us,oval,300,5 minutes,Orange/gold ovular object seen hovering&#44 then shut off lights the second another eye witness came within view.,10/3/2013,39.6416667,-77.7202778
10/24/2000 20:25,street,md,us,oval,30,less then 30 sec,I was standing on my back beck while my dog did his after supper thing&#44 My home is in the flight path of many planes approaching/ exiti,12/2/2000,39.6688889,-76.3797222
10/24/2013 07:10,columbia,md,us,diamond,20,20 seconds,A low diamond shaped flash of light that started blue and turned white like a bright shooting star over Sewells Orchard Pond.,11/11/2013,39.2402778,-76.8397222
10/24/2013 18:30,arnold,md,us,fireball,5,3-5 seconds,Extremely bright ball/circle of yellow-white light surrounded by a red outline streaked across evening sky,11/11/2013,39.0319444,-76.5030556
10/24/2013 19:45,edgewater,md,us,light,60,1 minute,Saw two stationary lights in the southeastern sky for about 1.5 minutes very brilliant light and then faded away.,11/11/2013,38.9569444,-76.5502778
10/25/1996 11:08,laurel,md,us,NA,25,25 sec.,Man&#44 entering Hwy. I-95&#44 sees 2 round objs. hovering motionless in clear sky.  Color of pencil lead w/ copper.  Objs. STREAK in 1 sec.,11/2/1999,39.0991667,-76.8486111
10/25/2011 06:50,accokeek (on hwy 210),md,us,light,15,15 seconds,ball of light flew over vehicle at treetop level and vanished,12/12/2011,38.6675,-77.0286111
10/25/2013 10:00,elkton,md,us,other,1800,30+ minutes,Object in Elkton sky with flashing orange lights&#44 just floating/hovering. Looked like a planets or star but def not.,11/11/2013,39.6066667,-75.8336111
10/25/2013 20:00,baltimore,md,us,formation,600,10 minutes,Baltimore MD BWI a formation of more than 20 orange lights strung across the eastern horizon at a elevation of 35 degrees,11/11/2013,39.2902778,-76.6125
10/25/2013 20:27,ellicott city,md,us,circle,120,2 minutes,((NUFORC Note:  Witness provides no information; remains totally anonymous.  PD)),11/11/2013,39.2672222,-76.7986111
10/26/2001 05:00,potomac,md,us,light,60,one minute,STEADY RED LIGHT GOING EAST TO WEST,11/20/2001,39.0180556,-77.2088889
10/26/2013 09:45,colton&#39s point,md,NA,circle,600,10 minutes,7 blue circles spotted by 4 people.,11/11/2013,38.224444,-76.753333
10/26/2013 19:00,brunswick,md,us,triangle,180,3 minutes,Saw weirrd 3 lighted triangle craft aprox 7:00 pm over Brunswick Maryland last night.. Was driving&#33 Looked like it was compied by civil,11/11/2013,39.3141667,-77.6280556
10/27/2002 00:15,stevensville,md,us,light,3600,1 hour +/-,Bright stationary lights,11/4/2002,38.9805556,-76.3147222
10/27/2010 23:20,mt. savage,md,us,oval,3600,1 hour,changing shades of green and blue.  kind o moving in a circular motion.  ((NUFORC Note:  Twinkling stars??  PD)),11/21/2010,39.6955556,-78.88
10/28/2000 21:30,laurel,md,us,circle,360,6 minutes,PLEASE IF ANYONE SAW THIS PLEASE CONTACT MR DAVENPORT&#33&#33&#33&#33  The time was 9:30 PM in Laurel Md.  There is a lot of air traffic here&#44 so y,12/2/2000,39.0991667,-76.8486111
10/28/2003 01:00,pasadena,md,us,unknown,7200,2 hours,I was starting to doze off durring the david letterman show. i was awaken by a repetitive sound kinda resembling a phone of the hook bu,10/31/2003,39.1072222,-76.5713889
10/28/2011 00:00,laurel,md,us,circle,600,10 minutes,round object above the trees,12/12/2011,39.0991667,-76.8486111
10/28/2011 04:00,baltimore,md,us,light,7200,120 min.,On video,12/12/2011,39.2902778,-76.6125
10/29/1999 21:30,ocean city,md,us,light,300,3-5 minutes,my wife and i saw 3 lighted objects in the sky. the objects initially were a continuous bright light&#44 and then a pulsating soft light.,11/2/1999,38.3363889,-75.0852778
10/29/2013 00:30,eastport,md,us,circle,5400,90 minutes,4 weeks&#44 observed round object in sky with mostly bright white but has flashing red and green lights.  ((NUFORC Note:  Sirius??  PD)),11/11/2013,38.9713889,-76.4786111
10/30/2005 00:00,preston,md,us,diamond,900,15 min,Diamond shaped  silent &#44 low flying craft  sighted near preston.   Anyone else see it?,11/3/2005,38.7125,-75.9102778
10/30/2005 21:30,silver spring,md,us,triangle,1500,25 minutes,solid triangle with white lights and no sound hovered and glided,2/1/2007,38.9905556,-77.0263889
10/30/2011 16:00,laurel,md,us,light,3,1 - 3 seconds,white light traveling fast,12/12/2011,39.0991667,-76.8486111
10/31/1990 18:30,friendship,md,us,disk,60,30seconds to 1 minute,I saw a saucer shaped&#44 somewhat transparent object moving through the air very slowly about 200 feet from my house for about 1 minute.,6/18/2003,38.7366667,-76.5897222
10/31/2000 19:30,riverdale,md,us,diamond,20,20 seconds,Halloween UFO&#33,1/17/2004,39.0991667,-76.5361111
10/31/2005 14:00,baltimore,md,us,cylinder,10,10 seconds,bright shiny silver cylinder shaped object  2 pm&#44 irratic flying,11/3/2005,39.2902778,-76.6125
10/31/2005 19:00,clarksville,md,us,other,5,5 seconds,White ball shaped bright object whizzing across the holloween sky,11/3/2005,39.2063889,-76.9433333
10/31/2005 20:30,greensboro,md,us,fireball,60,2 x 1 minute,At about 8:30 EST  on 10/31/05 Something lit up the sky and fell towards Earth as a fireball with a long firery trail behind it,11/3/2005,38.9736111,-75.8052778
10/31/2005 21:30,poolesville/dickerson,md,NA,fireball,30,30 seconds,White fireball over rural Northwestern Montgomery County.,2/24/2007,39.220256,-77.424284
10/31/2012 19:20,annapolis,md,us,triangle,120,2 minutes,Three blue slow blinking lights surrounding what appeared to be a very large wing appeared around 7:20pm in Annapolis&#44 MD&#44 the sky was,11/4/2012,38.9783333,-76.4925
10/3/2003 02:00,baltimore,md,us,disk,30,30 seconds,i dont know what it was but i saw something it wasnt any form of aircraft  that ive ever sen,10/31/2003,39.2902778,-76.6125
10/3/2013 01:30,baltimore (city line),md,us,light,25,25 seconds,On the evening of September 3rd&#44 I was smoking a cigarette on my deck looking up at the westerly sky. This is a nightly routine for me,11/11/2013,39.2902778,-76.6125
10/4/2000 18:10,severn,md,us,disk,120,1or 2mins,An orange and white disc stopped and hoverd about 3 or 4 minutes near my backyard.,12/2/2000,39.1369444,-76.6986111
10/4/2012 22:30,baltimore city,md,NA,disk,900,10-15 minutes,It never moved erratically or faster than the normal plane but the flickering of the beams of light is what made this object peculiar.,10/30/2012,39.290385,-76.612189
10/4/2013 19:00,westminister,md,us,unknown,480,8 minutes,I did take a picture with my phone&#44 could have been a meteor.,10/14/2013,39.6472222,-75.9688889
10/5/2011 06:00,la plata,md,us,unknown,300,5 min,red firey appearence on bottom dark on top moving slowly over rt 301 then hovers still in sky.,12/12/2011,38.5291667,-76.9755556
10/5/2012 22:30,rockville,md,us,other,1800,20-30 minutes,blue falling object&#44 followed by 2 white lights and aircrafts searching Rockville&#44MD,10/30/2012,39.0838889,-77.1530556
10/6/2003 20:12,annapolis,md,us,triangle,120,2 minutes,A black triangle near the Naval Academy moved silently and would hover.,10/17/2003,38.9783333,-76.4925
10/6/2004 13:02,greenbelt,md,us,changing,240,~ four minutes,Daylight spherical object projects vertical electrical blue column to four times its diameter downward while over NASA Goddard SFC..,10/27/2004,39.0044444,-76.8758333
10/6/2011 17:45,frederick,md,us,sphere,1500,20-25 minutes,I saw a Golden Sphere hovering a couple miles out&#44 possibly over Camp David.  ((NUFORC Note:  Weather balloon??  PD)),10/10/2011,39.4141667,-77.4108333
10/7/1999 22:00,elkton,md,us,unknown,2700,45min.,up to 9 aircraft&#443 apearing out of no where and up to 6 flying by the other 3,10/19/1999,39.6066667,-75.8336111
10/7/2008 20:30,baltimore,md,us,changing,14400,3-4 hours,At about 8:30 on Tuesday&#44 October 10&#44 I looked out the third story window of my dorm room and saw a really bright white light that had,10/31/2008,39.2902778,-76.6125
10/8/1999 21:30,bel air,md,us,triangle,600,10 minutes,At a high school football game&#44 Large triangle shaped object performed maneuvers at extremly slow speeds low to the ground&#44 over the Be,2/16/2000,39.5358333,-76.3486111
10/8/2003 19:00,rising sun,md,us,other,600,10 min.,A cluster of lights&#44 then suddenly a head light moving slowly and lower.  No landing gear rounded shape. No sound.,10/31/2003,39.6977778,-76.0630556
10/8/2003 19:30,kennedyville,md,us,changing,3600,1 hour,seemed to be practicing formations,10/15/2003,39.3052778,-75.9952778
10/8/2003 19:30,kennedyville,md,us,light,3600,about an hour,Mr. Davenport&#44 I reported a sighting that occurred on 10/8/03.You commented on the ufocenter website that you think that I may have,11/8/2003,39.3052778,-75.9952778
10/8/2003 20:23,bel air,md,us,light,7,7 seconds,Great  speed of lights,10/15/2003,39.5358333,-76.3486111
10/8/2011 21:00,gaithersburg,md,us,sphere,3600,1 hour,Shimmering object in northern sky of Montgomery County Maryland,10/10/2011,39.1433333,-77.2016667
1/10/2003 10:00,princess anne,md,us,other,420,5-7 min,PULSATING LIGHTS  OVER PR. ANNE..MD,11/3/2005,38.2027778,-75.6927778
1/10/2008 23:00,laurel,md,us,light,60,about one minute,two lights followed by flashes on highway,1/21/2008,39.0991667,-76.8486111
1/10/2010 11:30,hancock,md,us,sphere,120,2 minutes,Photo taken of silver colored sphere in Western Maryland.,2/14/2010,39.6988889,-78.18
1/10/2012 17:50,savage,md,us,oval,15,15 seconds,Very large circular object moving VERY slowly with orange lights covering the whole of the ship,1/12/2012,39.1377778,-76.8241667
11/11/2011 20:45,cumberland,md,us,other,21600,evening,Yellowish with red lights,12/12/2011,39.6527778,-78.7627778
11/1/2001 21:00,gaithersburg,md,us,cigar,180,three minutes,Blue Light/Cigar shaped craft/Euphoria?,11/3/2005,39.1433333,-77.2016667
11/1/2002 21:00,columbia,md,us,triangle,60,1 minute,Triangle shaped structure with lining the perimeter.,10/8/2007,39.2402778,-76.8397222
1/11/2004 03:28,west river,md,NA,egg,120,two min.,It was the size of large star&#44 egg shapped moving up&#44 down&#44zigzaging sideways and glowing a yellowish amber,1/17/2004,39.063658,-77.298777
1/11/2004 09:38,west river,md,NA,circle,60,1min,The sighting was of a small round white object&#44 darting in out of the light pink clouds.,1/17/2004,39.063658,-77.298777
1/11/2005 13:50,bel air,md,us,other,120,2 min.,Roundish&#44 dark gray thing moving in a steady&#44 sraight line just above the trees and not moving very fast.,1/27/2005,39.5358333,-76.3486111
11/1/2010 22:00,chestertown,md,us,light,5,5 seconds,Light makes two 90 degree turns at high rate of speed.,7/4/2012,39.2088889,-76.0669444
1/11/2014 19:55,chesapeake city,md,us,circle,300,5 minutes,Many white circular activity light above the clouds as if playing a game of tag.,1/16/2014,39.5308333,-75.8077778
11/15/1965 21:00,colmar manor,md,us,NA,300,5 minutes,The moon took up the entire skyline&#33,2/23/2011,38.9330556,-76.9461111
11/15/1995 23:00,north east,md,us,oval,600,10 minutes,UFO hovers right above a rural house and field,3/16/2001,39.6,-75.9416667
11/15/2000 07:00,cambridge,md,us,light,120,2 minutes,A bright orb like craft flying low over Maryland.,8/5/2001,38.5630556,-76.0791667
11/15/2003 21:00,salisbury,md,us,diamond,10,10 seconds,Sighting of a huge&#44 diamond shape UFO in Maryland.,11/26/2003,38.3605556,-75.5997222
11/15/2005 20:30,salisbury,md,us,oval,900,10-15 mins,Five oval white and blue lights zooming (first in patterns then straight patterns)in the cloudy sky at dusk.,12/16/2005,38.3605556,-75.5997222
11/15/2012 20:00,gaithersburg,md,us,changing,1200,20 minutes,4 Huge lights like spotlights reflecting across the clouds in a very strange pattern.  ((NUFORC Note:  Advertising lights.  PD)),11/19/2012,39.1433333,-77.2016667
11/15/2012 20:00,gaithersburg,md,us,circle,900,15 minutes+,The four circles were moving in succession.  ((NUFORC Note:  Probably an advertising lights.  PD)),11/19/2012,39.1433333,-77.2016667
11/15/2013 16:00,oxon hill,md,us,unknown,900,15 minutes,Didnt anyone else see the slow moving black object gliding over the DMV?????,12/2/2013,38.8033333,-76.99
11/16/1996 21:30,silver spring,md,us,triangle,45,45 seconds,Triangular Craft Flies Through Boyfirend&#39s Neighborhood.,6/3/2003,38.9905556,-77.0263889
11/16/1996 23:15,frostburg,md,us,NA,5,5 sec.,Man sees a bright yellow&#44 round ball of light w/ green tail stretching from hor. to hor. go slowly from NE to SE in W sky. Clear sky.,11/2/1999,39.6580556,-78.9286111
11/16/1999 19:10,joppatowne,md,us,light,4,4 seconds,traveling northeast in a car. i observered 3 objects&#44 best described as dots&#44 flew across the sky. they traveled one behind the other.,11/17/1999,39.4577778,-76.3555556
11/16/2004 22:00,ellicott city,md,us,cigar,240,one hour,Too slow to be a plane&#44 too fast to be a star and stayed within a small radius&#44 and want to know if there are other reports.,12/3/2004,39.2672222,-76.7986111
11/16/2008 14:20,annapolis,md,us,disk,180,2-3 minutes,Four silver objects in shifting formation over the Eastern Shore,1/10/2009,38.9783333,-76.4925
11/17/2010 00:24,middle river,md,us,disk,360,6 minutes,I saw a ufo behind my neighbors house on the ground.,11/21/2010,39.3341667,-76.4397222
11/17/2012 00:37,hagerstown,md,us,light,2,2 seconds,Very illuminous light moving very fast blinked twice then gone.,11/19/2012,39.6416667,-77.7202778
11/17/2013 18:00,upper marlboro,md,us,fireball,300,<5 minutes,Orange sets of lights seen over Maryland,11/20/2013,38.8158333,-76.75
11/18/2001 04:00,baltimore,md,us,cigar,60,1 minute,Long&#44 transparent object moving sideways across sky.,12/5/2001,39.2902778,-76.6125
11/18/2001 04:00,perryville,md,us,unknown,30,30 seconds,Faint Object Stealth looking,11/20/2001,39.56,-76.0716667
11/18/2001 04:45,annapolis,md,us,triangle,10,5-10 seconds,I saw luminous triangles&#44 flying in formation during the Leonid meteor shower,11/20/2001,38.9783333,-76.4925
11/18/2006 21:20,frederick,md,us,light,5,5 seconds,Looking to the west at 45 degrees above the horizon a bright white light disappears,12/7/2006,39.4141667,-77.4108333
11/18/2007 00:47,chevy chase,md,us,light,900,15 min.,A bright&#44 non-blinking light moved slowy across the sky&#44 then stopped for several minutes before disappearing,11/28/2007,38.9711111,-77.0766667
11/18/2010 20:30,waldorf,md,us,light,NA,1/2 second,one small white ball of light&#44 without a tail flashed through the sky for just 1/2 of a second then disappeared,11/21/2010,38.6244444,-76.9394444
11/18/2013 17:00,crofton,md,NA,oval,120,2 minutes,Metallic object seen in blue sky&#44 then seemed to de-materialize/fade into backround of blue sky,11/20/2013,39.001777,-76.687467
11/18/2013 17:59,waldorf,md,us,fireball,240,4 minutes,Orange orb seen by a woman in the horizon in Waldorf&#44 MD,11/20/2013,38.6244444,-76.9394444
11/18/2013 22:00,baltimore,md,us,sphere,180,3 minutes,Very bright sphere in sky&#44 thought it was planet but had one blinking light.,11/20/2013,39.2902778,-76.6125
11/19/2002 05:20,baltimore,md,us,formation,10,5 to 10 seconds,not sure if i observed one object or 10 in some kind of formation.,11/20/2002,39.2902778,-76.6125
11/19/2002 05:20,baltimore,md,us,formation,30,30 seconds,all i can say is i saw a formation of about 8 to 12 objects go overhead,11/20/2002,39.2902778,-76.6125
11/19/2010 19:00,berlin (assateague island),md,us,triangle,1200,20 minutes,Three stationary lights in triangular pattern,1/5/2011,38.3225,-75.2180556
11/19/2013 20:20,kensington,md,us,fireball,30,30 seconds,An orange fireball moved in the sky near Washington&#44 D.C.&#44 turned direction and &quot;burned out.&quot;,11/20/2013,39.0255556,-77.0766667
1/1/1968 23:00,wheaton,md,us,circle,60,1 minute,Woke up by loud noise&#44 parents said to come out and see the object. i was 9 or so at time. i remember red sphere hovering in one place,11/11/2013,39.0397222,-77.0555556
1/1/2011 00:00,joppatowne,md,us,fireball,90,1:30,Silent Red Light of New Years,1/5/2011,39.4577778,-76.3555556
1/1/2012 00:00,sykesville,md,us,circle,3600,1 hour,Weird orange/red balloon lights on New Year&#39s Eve in Syskesville,3/13/2012,39.3736111,-76.9680556
1/1/2012 00:15,sykesville,md,us,circle,300,5 minutes,Three glowing red lights moving slowly over Sykesville&#44 MD.,1/12/2012,39.3736111,-76.9680556
1/1/2012 00:30,bowie,md,us,light,300,3-5 minutes,Orange/pinkish lights seen by 6 people seen in Bowie&#44 MD,1/12/2012,39.0066667,-76.7794444
1/1/2012 12:03,elkton,md,us,diamond,240,4 minutes,((HOAX??))  Abduction.,1/12/2012,39.6066667,-75.8336111
1/1/2013 00:05,sykesville,md,us,formation,900,15 minutes,3 Orange colored objects in formation over Sykesville&#44 Maryland New Year&#39s Eve 2012,2/4/2013,39.3736111,-76.9680556
11/20/1993 03:30,elkton,md,us,triangle,1800,30 minutes,I was in my deer stand when i seen a light it came down wright over top of me.A beam of light came out when it left it was allmost day,4/1/2000,39.6066667,-75.8336111
11/20/2001 23:00,bel air,md,us,circle,2,seconds,Round turquise&#44 blue white disc hopping across the sky like a skipping stone.,12/5/2001,39.5358333,-76.3486111
11/20/2003 21:00,arbutus,md,us,triangle,3600,over an hour,triangular flashing lights,11/26/2003,39.2544444,-76.7002778
11/20/2005 22:30,bethesda,md,us,light,10800,more than 3 hours,I saw a moving lighting object in the sky from 9th floor balcony in Bethesda Maryland.  ((NUFORC Note:  Advertising light??  PD)),12/16/2005,38.9805556,-77.1005556
11/20/2012 17:00,keedysville,md,us,circle,120,2 minutes,Large circular object low to ground blinking colorful lights. Then zoomed off out of sight within a sec.,12/20/2012,39.4861111,-77.7
11/2/2008 02:15,abingdon,md,us,fireball,300,5 minutes,I saw above the tree lines (not that far above) what looked to be like a shooting star/meteorite race across the sky. However it was lo,1/10/2009,39.4622222,-76.2794444
11/2/2011 22:30,hyattsville,md,us,light,300,5 minutes,While sitting in my car I saw to round lights that looked like the headlights from a automobile&#44 then the two became one.,12/12/2011,38.9558333,-76.9458333
11/2/2013 22:30,columbia,md,us,light,2,2 seconds,Bright Green Light Shoots Across The Sky.,11/11/2013,39.2402778,-76.8397222
11/22/2013 00:00,damascus,md,us,changing,1200,20 minutes,Sighted 2 bar shaped brightly lighted objects that changed shape.,12/2/2013,39.2883333,-77.2041667
11/22/2013 16:45,cecil co. (northeast md),md,NA,oval,2,a few seconds,Brilliant blue flattened oval&#44 small&#44 about tree-top level.,12/2/2013,39.57394,-75.946324
11/23/1986 05:45,new windsor,md,us,triangle,60,a little over a minute,I was hunting with my Dad on a farm near our house.  It was before dawn&#44 and I was sitting by a tree&#44 bored and looking up at the sky.,1/11/2002,39.5419444,-77.1083333
11/23/1995 01:00,gaithersberg,md,NA,formation,75,15sec-1min,November&#44 1995 sighting of a red &quot;V&quot; formation followed by a wavy string of greenish lights.,1/11/2005,39.143441,-77.20137
11/23/2005 19:00,princess anne,md,us,formation,15,10-15  seconds,ORANGE GLOWING LIGHT FORMATION DARTS OUT OF SIGHT,12/16/2005,38.2027778,-75.6927778
11/23/2010 19:30,columbia,md,us,cylinder,60,1 minute,cylinder shaped object with moving lights,1/5/2011,39.2402778,-76.8397222
11/24/1997 02:00,salisbury,md,us,oval,120,2 minuets,Bright lights coming up over the trees. See little tiny oval yellowesh glowing thing.  It would get bright then dim&#44 then bright than d,1/28/1999,38.3605556,-75.5997222
11/24/1997 02:00,salisbury,md,us,oval,120,2 minutes,A gold ovalish shaped craft hovering just over the tree line&#44 varrying in intensity of light&#44 no sound.,1/28/1999,38.3605556,-75.5997222
11/24/2005 21:00,centreville,md,us,light,90,several hours,red lights&#44 soundless&#44 hover or move with blistering speed.,12/16/2005,39.0416667,-76.0666667
11/24/2013 18:24,hyattsville,md,us,circle,10800,3 hours,White cirlce of light with red lights in the sky for 3 hours&#44 Way to big to be a star as the other stars in the sky were barley visible,12/2/2013,38.9558333,-76.9458333
11/25/2008 19:15,knoxville,md,us,teardrop,5,3-5 seconds,I looked up to see  teardrop shaped light &#44 back dropped by a mountain&#44 as it shot towards the ground at a 45 degree angle.,1/10/2009,39.3269444,-77.6644444
11/26/2001 21:10,kensington,md,us,light,600,:20-:30,We saw a light moving soundlessly in an erratic pattern and at varying speeds.,12/5/2001,39.0255556,-77.0766667
11/27/2010 23:30,ocean city,md,us,triangle,60,01min,UFO over Ocean City&#44 Maryland,1/31/2011,38.3363889,-75.0852778
11/27/2011 18:00,huntingtown,md,us,triangle,1200,20 minutes,Triangle shape black object bigger than commercial jet. 3 round bright lights 1 on each corner&#44 red light in center.,12/12/2011,38.6158333,-76.6133333
11/28/1998 17:30,dunkirk,md,us,other,60,1 min,fast moving craft at a very high altidude&#44 after sun set,1/28/1999,38.7216667,-76.6608333
11/28/2006 00:00,highland,md,us,other,300,5minutes,Parallel lines moving from West to East in the sky,12/7/2006,39.1788889,-76.9577778
11/28/2008 17:30,mardela,md,NA,sphere,300,5 minutes,3 orbs seen on Route 50,1/10/2009,38.50188,-75.748457
11/29/2003 24:00,grasonville,md,us,other,3,3 seconds,blinked on moving very fast and blinked off.,12/9/2003,38.9580556,-76.2105556
11/29/2007 20:45,glen burnie,md,us,chevron,15,15 seconds,Glowing V moves across sky,3/4/2008,39.1625,-76.625
11/29/2012 15:00,baltimore,md,us,disk,480,8 minutes,DISCS WERE ALREADY SIGHTED UPON MY ARRIVAL.,12/20/2012,39.2902778,-76.6125
11/29/2013 18:50,frederick,md,us,formation,600,10 minutes,5 or 6 oranges objects seen flying over Frederick MD  11/29/2013 18:50.,12/2/2013,39.4141667,-77.4108333
11/29/2013 18:50,urbana,md,us,circle,360,6 minutes,A group of orange lights moving south in Urbana&#44 MD along the Ijamsville Rd/Villages of Urbana area.,12/2/2013,39.3258333,-77.3516667
11/29/2013 18:50,urbana,md,us,disk,600,10 minutes,Orange dots moving to south in Maryland.,12/2/2013,39.3258333,-77.3516667
11/29/2013 20:00,baltimore,md,us,triangle,5,5 seconds,Triangle shaped and very bright moving at the same time.,12/2/2013,39.2902778,-76.6125
11/30/2011 09:30,elkton,md,us,cigar,120,2 min,Tube shaped craft over elkton maryland,12/12/2011,39.6066667,-75.8336111
1/13/2001 19:50,damascus,md,us,disk,120,2 minutes,A disc shaped craft with lights&#44  other than a usual aircraft&#44 was seen flying overhead during the night in damascus,2/18/2001,39.2883333,-77.2041667
11/3/2009 15:45,laurel,md,us,sphere,20,20 seconds approx,Object Near Laurel MD,12/12/2009,39.0991667,-76.8486111
11/3/2012 00:45,silver run (westminster),md,us,sphere,3600,1 hour,2 spheres one red the other white silently moving around almost playful like then joined and shot off.,11/11/2013,39.6827778,-77.0444444
11/3/2013 21:00,middletown,md,us,circle,5,5 seconds,Circular shimmering object shoots outn of cloud and then turns off like a light. Very high speed.,12/2/2013,39.4436111,-77.545
1/13/2014 21:00,clarksburg,md,us,cigar,4,3-4 seconds,A ball of orange light appeared in the night sky&#44 may be a possible meteor.,1/16/2014,39.2386111,-77.2797222
1/14/2002 13:00,hyattsville,md,us,sphere,15,15seconds,while driving along a highway i looked up at a cloud formation and saw moving slowly about 200 feet above the trees a gray metallic sph,12/7/2006,38.9558333,-76.9458333
1/14/2002 22:30,ocean city,md,us,light,1200,20 minutes,Glowing &#39orbs&#39 dive into ocean after 15 minute hover,2/22/2002,38.3363889,-75.0852778
11/4/2010 19:55,williamsport,md,us,diamond,1224,20:24,Close encounter with a hovering craft.,11/21/2010,39.6005556,-77.8208333
1/15/1999 17:30,owings mills,md,us,other,300,5 minutes,Overflight of strange craft with chase plane,4/2/1999,39.4194444,-76.7805556
1/15/1999 20:43,dunkirk,md,us,other,30,30 sec.,Me and a friend viewed a craft.  We turned around to see it again and it had vanished.,6/23/1999,38.7216667,-76.6608333
1/15/2008 01:50,rockville,md,us,triangle,2,2 seconds,Bright triangular shaped object moves at a rediculous speed across my window,1/21/2008,39.0838889,-77.1530556
1/15/2009 00:05,rockville,md,us,sphere,120,2 minutes,Large&#44 floating metallic sphere with a single &#39headlight&#39 and atleast 3 red lights on its bottom-side,3/19/2009,39.0838889,-77.1530556
11/5/2011 18:00,la plata,md,us,unknown,300,5 min.,I was driving south 301 just coming out of LA PLATA MD before Preference Estates looked up and saw to the left of 301 slow moving firer,12/12/2011,38.5291667,-76.9755556
11/6/1999 01:30,landover,md,us,circle,4,approx. 4 sec.,Myself and three others were enjoying the evening talking&#44One other then myself was standing in the same direction when we seen a light,11/9/1999,38.9338889,-76.8969444
1/16/2000 20:50,hagerstown (sww of&#44  on i81&#44 intersect.i70 &amp; i81),md,us,light,2,1-2 seconds,In west&#44 brilliant point of light(larger than star or planet) &amp; streak fell nearly vertical from sky.,1/22/2000,39.6416667,-77.7202778
11/6/2006 02:00,glen burnie,md,us,unknown,900,10-15 minutes,Returning from work my husband and I spotted a huge glowing&#44 intense lights that resembled a fire&#44 along the woods on 8th avenue&#44 Glen,12/12/2009,39.1625,-76.625
1/16/2007 11:30,rockville,md,us,disk,180,3 minutes,Flying silent metallic disk passes over my head,4/27/2007,39.0838889,-77.1530556
1/16/2011 20:12,gaithersburg,md,us,circle,120,2 miuntes,I was in the back seat of a moving vehicle in Gaithersburg&#44 Maryland when I saw a bright&#44 gold&#44 circular object to the east,1/31/2011,39.1433333,-77.2016667
11/6/2011 23:40,annapolis,md,us,light,25,00:25,Orb flashing red&#44 blue&#44 green seen over annapolis&#44 MD,12/12/2011,38.9783333,-76.4925
1/17/1999 22:47,parkton,md,us,disk,240,4 minutes,Looking out the front window I noticed a what appeared to be a star changing colors&#44 red&#44 then blue&#44 then white.  I looked through bino,2/16/1999,39.6408333,-76.6594444
11/7/2004 04:00,laurel,md,us,light,20,20 seconds,An irregular flight pattern zig zagging then back and forth and up and down with a light as bright as a star,11/9/2004,39.0991667,-76.8486111
1/17/2008 02:04,hagerstown,md,us,triangle,300,5 mins,i thought i was seeing stuff at first,1/21/2008,39.6416667,-77.7202778
1/17/2008 18:15,baltimore,md,us,triangle,1200,15-20 minutes,January 17&#44 2008-6:15pm. Triangular shaped object hovering over Belvedere Square in Baltimore&#44 Maryland.,3/4/2008,39.2902778,-76.6125
1/17/2014 12:20,glen burnie,md,us,other,300,5 minutes,Boomerang  shaped moving very fast&#44 descending &#44 from northwest to east then back west and then I  lost sight of the object seem to be,1/24/2014,39.1625,-76.625
1/18/1999 17:00,baltimore,md,us,light,45,30-45 seconds,Approximately 15 spheres of light traveling down and to the east.,2/16/1999,39.2902778,-76.6125
11/8/2004 08:00,glen burnie,md,us,sphere,240,3-4 minutes,white/silver orb  seen in Glen Burnie Md. following 2 high altitude jets leaving contrails.,11/9/2004,39.1625,-76.625
1/18/2006 15:00,annapolis,md,us,oval,3,3 seconds,I was sitting in my truck at the stop light on Riva Rd waiting to cross under Aris T> Allen overpass and go up the ramp. Suddenly an ov,2/14/2006,38.9783333,-76.4925
11/8/2007 22:00,silver spring,md,us,fireball,15,15 seconds,Falling object with strange green glow&#44 like a meteor.,11/28/2007,38.9905556,-77.0263889
11/8/2011 20:30,davidsonville,md,us,triangle,120,2 minutes,Looking at field across from the house on 1520 Governors Bridge Rd where normal flight path is for BWI flights. It is a very clear Nigh,12/12/2011,38.9227778,-76.6286111
11/8/2013 21:15,nottingham,md,us,light,120,1-2 minutes,Bright orbs traveling across the sky in triangular pattern.,11/11/2013,39.3638889,-76.4525
1/18/2014 20:45,columbia,md,us,cigar,900,15 minutes,There ufos spotted over Columbia&#44 MD.,1/24/2014,39.2402778,-76.8397222
1/18/2014 21:00,easton,md,us,light,10,10 seconds,A big flash of white light by the moon followed by a very bright light that skipped across the sky then faded to black.,1/24/2014,38.7741667,-76.0766667
1/19/2004 21:00,mechaniscville,md,NA,triangle,120,2 mins,It moved slow with 9 bright white lights made no sound and was low to the ground with triangular shape,6/27/2011,38.442165,-76.743977
11/9/2005 21:00,laplata,md,NA,other,20,20seconds,Telepathic Message?,12/12/2009,38.529288,-76.975251
1/19/2011 20:00,district heights,md,us,flash,3600,1 hour,Last Tuesday night i was in my bedroom had the TV and listening to a gospel cd I brought on my computer when I heard this loud noise go,2/8/2011,38.8575,-76.8897222
11/9/2013 21:00,severna park,md,us,sphere,900,15 minutes,Silent red spheres moving in single file across the sky in Severna Park Maryland.,11/11/2013,39.0702778,-76.5455556
1/20/2000 23:10,belcamp,md,us,triangle,120,2 min,While viewing the lunar eclipse I saw a triangle of 11 small dim lights pass between me and the moon. The formation traveled to the sou,1/22/2000,39.4688889,-76.2336111
1/20/2007 19:57,ocean city,md,us,other,20,10-20 seconds,orange light zig-zags over ocean city&#44maryland,2/1/2007,38.3363889,-75.0852778
12/10/2006 20:45,frostburg,md,us,flash,300,5 minutes,I was walking to the other side of campus to visit a friend.  It was snowing and incredibly cold.  I could hear a loud bell&#44 almost lik,1/5/2011,39.6580556,-78.9286111
12/11/2004 19:00,hagerstown,md,us,flash,15,15 seconds,I saw this computer page and know I needed to write in.  Every Saturday night my buddies and I make fruit cups and shoot the breeze&#44 us,1/19/2005,39.6416667,-77.7202778
12/11/2004 19:55,gaithersburg,md,us,other,2,2 seconds,Brilliant green comet or meteor,12/14/2004,39.1433333,-77.2016667
12/11/2004 20:00,baltimore,md,us,fireball,4,4 seconds,Multicolored fireball in west Balitmore City near the county line,1/19/2005,39.2902778,-76.6125
12/11/2004 20:00,college park,md,us,fireball,2,2 seconds,Big Green Ball of Light Falling over College Park&#44 MD on December&#44 11 2004  ((NUFORC Note:  Possible meteor.  PD)),12/14/2004,38.9805556,-76.9372222
12/11/2004 21:00,williamsport,md,us,fireball,6,6 seconds,Green light emmitted from sky in Western Maryland  ((NUFORC Note:  Possible meteor.  PD)),12/14/2004,39.6005556,-77.8208333
12/11/2007 23:00,north east,md,us,unknown,60,1 minute,((HOAX??)) My dog &amp; I were in the driveway he began to bark wildly at the sky&#44 I looked up to see three large lights/orbs.,1/10/2009,39.6,-75.9416667
12/11/2009 22:41,rockville,md,us,triangle,7,5-7 seconds,6 orange colored triangular shaped craft moving at extream high speed and ultra high altitude,12/12/2009,39.0838889,-77.1530556
12/1/2003 21:40,baltimore,md,us,chevron,2,a few seconds,I was walking back to my car at this time&#44 as i work at a model shop in downtown Baltimore. I had parked on the uppermost roof level of,12/9/2003,39.2902778,-76.6125
1/21/2003 22:55,bethesda/rockville,md,NA,formation,300,5 minutes,Craft with 3 lights hovering over 495 then darting away,3/21/2003,39.024231,-77.102991
12/1/2006 17:00,cockeysville,md,us,other,3600,approx 1 hour,v shaped greenlights seen in evening cloudy sky in baltimore,12/7/2006,39.4811111,-76.6441667
12/1/2009 19:00,taneytown,md,us,other,1200,hours,unusual objetcs in the nights sky&#33,2/14/2010,39.6577778,-77.1747222
12/1/2009 19:00,taneytown,md,us,other,1200,hours,Unusual objets in the nights sky.,2/14/2010,39.6577778,-77.1747222
12/1/2013 02:25,arnold,md,us,circle,20,20 seconds,Red object over Arnold/Annapolis Maryland,12/2/2013,39.0319444,-76.5030556
12/12/1948 23:30,sharpsburg,md,us,circle,180,3 minutes,Small UFO at 100&#39&#44  airspeed less than 20mph&#44 absolutely silent&#44  saw crew&#44 normal&#44 white uniforms.,3/19/2009,39.4575,-77.7491667
12/12/1999 03:30,la plata,md,us,NA,60,1:00+ min,saw hovering over a field&#44 then slowly moved away as we approached. made almost no sound. U.S. Military probable.,12/16/1999,38.5291667,-76.9755556
12/12/2003 13:00,rockville,md,us,changing,30,30sec,Object that acted like a rust colored balloon turned flat and sped away.,1/17/2004,39.0838889,-77.1530556
12/12/2005 19:00,annapolis,md,us,disk,600,10 minutes,Saucer shapped object with lights all around it in the sky in Annapolis,12/16/2005,38.9783333,-76.4925
12/12/2009 02:10,towson,md,us,sphere,5,5 seconds,white sphere flew silently over the house,2/14/2010,39.4013889,-76.6022222
12/12/2013 00:00,baltimore,md,us,other,60,1 minute,2 vertical lights relatively low moving quickly across sky and then disappeared.  Did not reappear&#44 outside for 20mins.,12/12/2013,39.2902778,-76.6125
12/13/2005 20:15,chesapeake beach,md,us,fireball,5,3-5 sec.,Green Fireball over Western Shore of Maryland.  ((NUFORC Note:  Possible meteor??  PD)),12/16/2005,38.6861111,-76.535
12/13/2012 06:30,towson,md,us,sphere,4,4 seconds,Green sphere over I-83 stops&#44 hovers then takes off to the west.  ((NUFORC Note:  Possible hoax&#44 we believe.  PD)).,12/20/2012,39.4013889,-76.6022222
12/14/2012 22:45,potomac,md,us,triangle,2400,40 minutes,I and girlfriend noticed a bright object in the sky around 10:45.,12/20/2012,39.0180556,-77.2088889
12/15/1967 19:30,la plata,md,us,circle,600,10 minutes,bright rotating colors&#44 two objects&#44 one large and one much smaller.,10/19/1999,38.5291667,-76.9755556
12/15/1990 00:30,ocean city,md,us,oval,10800,3 hours,2 hovering discs probing ocean water,5/11/2005,38.3363889,-75.0852778
12/15/1995 19:30,elkridge,md,us,fireball,4,4 seconds,Late December 1995 green fireball with pale green tail flew over I-95 at around 7:30. Also spotted in Annapolis around the same time.,1/7/2000,39.2125,-76.7138889
12/15/1998 00:30,baltimore,md,us,disk,600,10 minutes,..An armada in formation flying over the Baltimore beltway,8/25/2000,39.2902778,-76.6125
12/15/2000 05:30,waldorf,md,us,light,10,10 seconds,A bright green fast moving light.,3/6/2001,38.6244444,-76.9394444
12/15/2003 18:55,salisbury,md,us,changing,900,15 minutes,Vacillating object seen through kitchen window,12/19/2003,38.3605556,-75.5997222
12/15/2009 22:45,preston,md,us,light,300,5 minutes,2 horizontal lights over a field weaving in the air but seemingly still then the 2 lights began circle as if they were orbiting an obje,2/14/2010,38.7125,-75.9102778
12/16/2006 06:30,baltimore,md,us,unknown,600,10 min,Sunlight in the dark.  ((NUFORC Note:  Missile launch from Wallops Island&#44 VA.  PD)),2/1/2007,39.2902778,-76.6125
12/16/2011 22:59,cooksville,md,NA,sphere,300,5 minutes,4 glowing orange spherical objects viewed&#44 flying in some type of formation.,12/17/2011,39.317659,-77.020391
12/17/1998 20:38,severn,md,us,fireball,5,5 seconds,Observed green fireball in South sky falling straight down,1/28/1999,39.1369444,-76.6986111
12/17/2006 23:07,williamsport,md,us,triangle,60,one minute,triangle UFO,6/12/2007,39.6005556,-77.8208333
12/19/2001 10:00,glen dale,md,NA,unknown,1800,30 minutes,Strange Cloud Formation,1/11/2002,38.98761,-76.820527
12/19/2002 22:30,kensington,md,us,chevron,60,one minute,chevron of lights resembling small v-formation of geese; silent; observation lasted approx 1 minute,3/21/2003,39.0255556,-77.0766667
1/2/2007 20:00,clarksburg,md,us,light,1200,20 min,lights in the sky over clarksburg,2/1/2007,39.2386111,-77.2797222
1/2/2008 22:35,waldorf,md,us,circle,600,10 mins (approx.),Very hard to explain&#44 the movement&#44 the actions&#44 and the speed...very wierd.,1/21/2008,38.6244444,-76.9394444
12/20/2012 11:19,great mills,md,us,oval,600,10 minutes,It seems both objects hovered over the elementary and high school that day&#44 which are approx. 2 miles.,2/4/2013,38.2366667,-76.4975
12/20/2012 21:00,annapolis,md,us,light,1800,30 minutes,http://edgewater.patch.com/articles/video-massive-power-outages-in-anne-arundel#video-12661183 This is video that one of us took of the,12/21/2012,38.9783333,-76.4925
12/2/2002 05:17,middle river,md,us,flash,1,second,A large green flash of light.,12/23/2002,39.3341667,-76.4397222
12/2/2002 05:20,queenstown,md,us,circle,120,1 to 2 min.,I usually get up very early to take our dogs out in the AM&#44 usually around 5:15 to 5:30AM.  It was still dark&#44 moon was partially cover,12/23/2002,38.9905556,-76.1580556
1/22/2002 20:00,salisbury,md,us,fireball,20,20 seconds,...a very BRIGHT FIREBALL that cast a shadow upon myself and my family,1/29/2002,38.3605556,-75.5997222
1/22/2003 19:15,salisbury,md,us,light,10,10 seconds,several orange lights pulsating (like flares)&#44 then totally disappeared then reappeared in a different part of the sky.,3/21/2003,38.3605556,-75.5997222
12/2/2010 18:00,silver spring,md,us,other,900,15 min,four large clusters of lights flying in close proximity,1/5/2011,38.9905556,-77.0263889
12/2/2010 19:00,silver spring,md,us,circle,300,approximately five minute,Five to eight orange circles in the sky.,1/5/2011,38.9905556,-77.0263889
1/22/2011 12:40,bel air,md,us,light,60,1 minute,two lights beside eachother  shooting upward str8 into the sky at various speeds,1/31/2011,39.5358333,-76.3486111
12/2/2011 21:10,bel air,md,us,chevron,60,1 minute,Near invisible blue wing&#44 silent&#44 ever so subtle glow.,12/12/2011,39.5358333,-76.3486111
12/22/2011 17:45,baltimore,md,us,cigar,120,2 minutes,Rotating circular object with blinking lights hovers over I-95 in Maryland,1/12/2012,39.2902778,-76.6125
12/23/2006 16:00,williamsport,md,us,triangle,180,3 minutes,Giant triangle UFO spotted.,2/1/2007,39.6005556,-77.8208333
12/23/2007 18:45,bowie,md,us,disk,4,4 seconds,disc shaped&#44 blue /white light UFO flying low and fast,3/4/2008,39.0066667,-76.7794444
12/23/2007 18:45,bowie,md,us,light,5,5 seconds,Bluish white light UFO flying low at high speed above Baltimore Washington Pky&#44 Dec 23&#44 2007,3/4/2008,39.0066667,-76.7794444
12/23/2012 06:10,westminster,md,us,circle,300,5 minutes,Pin-point Red lights&#44 flying in somewhat formation&#44 close to each other,2/4/2013,39.5752778,-76.9961111
12/23/2012 19:00,westminster,md,us,triangle,3600,1 hour,Triangular shaped with flashing red and blue lights that was stationary at 9:30 pm,2/4/2013,39.5752778,-76.9961111
12/23/2013 18:30,waldorf,md,us,triangle,300,5 minutes,Triangular craft followed by multiple conventional planes.,1/10/2014,38.6244444,-76.9394444
12/24/2004 04:00,columbia,md,us,other,3600,over an hour,object looked like a star&#44 but the color changed back and forward,1/11/2005,39.2402778,-76.8397222
12/24/2011 17:45,olney,md,us,light,3,3 seconds,Fast moving very small circular or disk shaped bright bluish-white object moving SW over Olney&#44 MD 5:45 PM,1/12/2012,39.1530556,-77.0672222
12/24/2011 19:30,catonsville,md,us,sphere,120,1-2 minutes,Orange spheres in the sky,1/12/2012,39.2719444,-76.7322222
12/24/2011 21:10,gaithersburg,md,us,circle,600,10 minutes,Lights over Gaithersburg&#44 MD,1/12/2012,39.1433333,-77.2016667
12/25/2000 19:15,fallston,md,us,changing,2700,45 min.,iT IS A VERY BRIGHT WHITE&#44 BRIGHTER THAN ANY STAR&#44 AND IT has LONG PROBES THAT JUT OUT FROM IT WHICH APPEAR TO HAVE RED LIGHTS ON THE E,3/16/2001,39.5144444,-76.4113889
12/25/2012 20:45,landover,md,us,light,25,25 seconds,Five witnesses in the car saw 5 orange lights traveling together side by side.,2/4/2013,38.9338889,-76.8969444
12/26/2011 19:45,maugansville,md,us,formation,60,less than one minute,While walking my dog&#44  I noticed several orange/red lights in the sky.  The number is an approximate guess as a row of townhouses was i,1/12/2012,39.6927778,-77.745
12/26/2013 23:00,glen burnie,md,us,circle,180,3 minutes,I saw a round&#44 orb-shaped object last night.  It was dark&#44 with stars out last night&#44 clear sky.  It had a lot of red flashing lights.,1/10/2014,39.1625,-76.625
12/27/2005 03:20,columbia,md,us,unknown,2,2 seconds,Small reflection moving at 45 degree angle.,2/14/2006,39.2402778,-76.8397222
12/27/2008 22:30,fort washington,md,us,disk,1200,15-20 minutes,Twinkling multicolor &quot;star&quot; that moved across the sky after being idle for over 10 minutes or more,1/10/2009,38.7072222,-77.0233333
12/28/2004 04:00,havre de grace,md,us,unknown,3600,@ 1 hour,the object looked like a star and appeared to get brighter at times as it moved up and down across the nights sky,1/11/2005,39.5491667,-76.0919444
12/28/2005 23:10,gaithersburg,md,us,light,10,10 seconds,SAW FLYING  OBJECT  AND IT DISSAPPEARD RIGHT BEFORE MY EYES&#33,2/14/2006,39.1433333,-77.2016667
12/28/2010 18:50,skidmore,md,us,light,4,3 -4 sec,Flash of light,1/5/2011,39.0211111,-76.4155556
12/28/2012 20:00,ocean city,md,us,triangle,3,3 seconds,A triangle of orange lights when looking north on Ocean City Beach towards DE. Later at 12:30 a.m. a bright flash of white lights (appr,2/4/2013,38.3363889,-75.0852778
12/29/2001 20:00,ellicott city,md,us,fireball,4,4 seconds,A green fireball going parllel to the horizon at about 20 degrees. It then seemed to burnout. I immediately thought of it as just a sho,1/11/2002,39.2672222,-76.7986111
12/29/2009 23:00,perryville,md,us,circle,10,10 sec,Dark round shadow blocks light from moon,4/13/2010,39.56,-76.0716667
12/30/2001 20:50,baltimore,md,us,sphere,1800,30 minutes,9 glowing orbs over Baltimore MD,2/4/2013,39.2902778,-76.6125
12/30/2012 20:00,temple hills,md,us,formation,30,30 seconds,Formation of 8 to 10 lights seen by Mother and Daughter,2/4/2013,38.8138889,-76.9458333
12/30/2012 21:15,baltimore,md,us,sphere,2700,30-45 minutes,Glowing orbs over Baltimore MD 12/30/2012.,2/4/2013,39.2902778,-76.6125
12/31/2013 22:00,new market,md,us,sphere,240,4 minutes,3 orange spheres (flame-like) objects seen traveling in the sky.,1/10/2014,39.3825,-77.2697222
12/3/2003 20:00,hagerstown (south of&#44 on i-81),md,us,triangle,60,60 seconds,I-81 south of Hagerstown MD&#44 we saw what appeared to be a large&#44 triangular object hovering just above the trees.,12/19/2003,39.6416667,-77.7202778
12/3/2006 05:00,havre de grace,md,us,fireball,210,3.5 min,((HOAX??))  CRESENT SHAPED FIRE OBJECT SEEN IN WOODS.,12/7/2006,39.5491667,-76.0919444
1/23/2007 12:00,baltimore,md,us,triangle,60,1 minute,Silver dots in triangle shape at noon on Saturday,2/1/2007,39.2902778,-76.6125
12/3/2011 17:00,temple hills,md,us,unknown,3600,1 hour,((HOAX??))  UFO Activity - Likely Associated with reports submitted between 11/18 /2011- 11/21/2011,12/12/2011,38.8138889,-76.9458333
12/3/2013 18:15,burtonsville,md,us,light,1800,30 minutes,Bright&#44 very slow moving light with blue sparkles seen by 5 for 30 minutes above Silver Spring&#44 MD.,12/5/2013,39.1111111,-76.9327778
1/24/2008 21:15,north east/bel air,md,NA,changing,60,1 minute,Red glowing object and Triangle -north east maryland,2/14/2008,39.535941,-76.348293
1/25/2005 06:32,new carrollton,md,us,light,2,2 seconds,Observed burst of bluish light at cloud level at 0632 on 25 JAN 05.,1/27/2005,38.9697222,-76.8802778
1/25/2006 20:15,annapolis/severna park,md,NA,oval,10,5 to 10 seconds,Object appeared only a few miles from the Naval Academy in Annapolis&#44 MD,2/14/2006,39.028504,-76.503584
12/5/2011 20:20,bel air,md,us,oval,1200,20 mins,Flying oval objects,12/12/2011,39.5358333,-76.3486111
12/5/2012 01:12,beltsville,md,us,formation,360,6 minutes,Three flickering lights at first slow and then really fast until gone,12/20/2012,39.0347222,-76.9077778
1/26/2008 07:20,baltimore,md,us,cigar,300,5 minutes,Four stationary light objects at Sunrise in the Eastern sky,2/14/2008,39.2902778,-76.6125
1/27/2002 12:45,olney,md,us,diamond,10,10 sec,Observed a High Speed flight of a Fast moving object,1/29/2002,39.1530556,-77.0672222
1/27/2005 19:00,abingdon,md,us,light,300,5 minutes,object emitting a brilliant solid white light beam in a reverse triangle pattern,2/8/2005,39.4622222,-76.2794444
1/27/2008 04:30,ellicott city,md,us,other,20,00:20,Dumb bell shaped UFO over Ellicott City,8/12/2008,39.2672222,-76.7986111
12/7/2008 23:00,takoma park,md,us,formation,7,7 seconds,String formation of five reddish lights flew south over DC area on a clear&#44 cold December night (11PM); too fast to be aircraft.,1/10/2009,38.9777778,-77.0077778
1/27/2011 24:00,lanham,md,us,disk,120,minute,I was taking random pictures while on the bus going around Landover Mall and saw what appears to be a UFO in two of them in the 4:21 PM,1/31/2011,38.9669444,-76.8622222
1/28/2003 05:30,owings mills (area),md,us,formation,90,60-90 seconds,Three lights surrounded by smoke,3/21/2003,39.4194444,-76.7805556
12/8/2008 00:00,baltimore,md,us,light,3600,1 hour,((HOAX??))  white lights over baltimore..,1/10/2009,39.2902778,-76.6125
12/8/2010 21:28,gwynn oak,md,us,triangle,21,21 seconds,It was a sight to see&#44,1/5/2011,39.3325,-76.6930556
1/29/1999 18:40,germantown/frederick  (between),md,NA,disk,600,10 minutes,craft was stationary for app. 5 min.&#44 moved higher &amp; west&#44 pulsed several times then disappeared,2/16/1999,39.1897,-77.241383
12/9/2008 06:42,kensington/olney,md,NA,light,600,10 minutes so far,Four twirling lights seen.  ((NUFORC Note:  Advertising lights&#44 we suspect.  PD)),1/10/2009,38.942324,-77.17647
1/29/2010 13:25,jefferson,md,us,oval,120,1-2minutes,Oval shaped object sighted hovering over a field,6/3/2010,39.3619444,-77.5319444
1/29/2011 02:00,parkville,md,us,light,120,2 minutes,This wasnt just a star...it was something more,2/8/2011,39.3772222,-76.54
1/29/2013 23:50,hagerstown,md,us,light,3000,50 minutes,Unusal lights were observed in one location (not moving) then simply went out.,2/4/2013,39.6416667,-77.7202778
1/30/2007 09:25,rockville,md,us,cylinder,300,5 mins,Disk shape over 270N Rockville MD,2/1/2007,39.0838889,-77.1530556
1/31/2008 21:00,westminster,md,us,other,600,5-10 minutes,Strange Helicopters Over Development,2/14/2008,39.5752778,-76.9961111
1/31/2009 02:00,avilton (frostburg),md,us,formation,20,15-20 seconds,Long strand of equally spaced red lights that disappear to the center&#44 then come out again.,3/19/2009,39.6502778,-79.0425
1/31/2014 22:50,parkville,md,us,triangle,300,5 minutes,Parkville&#44 MD&#44 ufo sighting.,2/7/2014,39.3772222,-76.54
1/3/2004 23:00,laurel,md,us,flash,4,4 seconds,Green Meteor,3/2/2004,39.0991667,-76.8486111
1/4/2003 20:50,westminster,md,us,sphere,300,five minutes,strange bright lights fly over rural Maryland,3/21/2003,39.5752778,-76.9961111
1/4/2011 15:30,chesapeake bay,md,NA,other,20,hour,I WOULD LIKE TI BRING TO YOUR ATTENTION&#44 THE DEATH&#39S OF THOUSANDS OF FISH IN THE CHESAPEAK BAY THE FISH WERE ALL YOUNG FROM ONE TO THRE,1/31/2011,37.584154,-76.178374
1/5/2002 23:00,baltimore,md,us,light,600,10 minutes,2 light-shaped...things seen in Baltimore County one year ago&#44 I report on it now,9/17/2003,39.2902778,-76.6125
1/5/2012 00:00,kent island,md,NA,light,14400,4 hours,2 hovering lights seen near kent island....  ((NUFORC Note:  Jupiter and Venus currently are very prominent in the western sky.  PD)),3/16/2012,38.937339,-76.328994
1/7/2002 17:49,bel air,md,us,egg,5,3-5 seconds,Flourscent Green blue centered egg shaped object crossed our field of vision in a curved path and instantly disappered,1/11/2002,39.5358333,-76.3486111
1/7/2002 17:55,baltimore,md,us,sphere,5,5 seconds,Streaking white light that turned blue and accelerated at incredible speed,1/11/2002,39.2902778,-76.6125
1/7/2002 17:55,prince frederick,md,us,light,3,3 seconds,Bright green light seen in sky for few seconds moving to the South in the southern maryland / chesepeake bay region.,11/16/2002,38.5402778,-76.5847222
1/7/2002 18:00,fort washington,md,us,teardrop,2,seconds,Luminous green&#44 white outlined tear shaped object moving quickly accross the sky in a dwonward curve.,1/11/2002,38.7072222,-77.0233333
1/7/2012 06:30,hagerstown,md,us,triangle,1800,30 min.,Triangle shape white light in southern sky over Hagerstown&#44 Md.,1/12/2012,39.6416667,-77.7202778
1/7/2012 07:00,belair,md,NA,triangle,120,2min,TRIANGLE SHAPED CRAFT WITH WHITE LIGHTS SEEN HOVERING OVER HIGHWAY,2/3/2012,39.321528,-76.574831
1/7/2013 06:50,baltimore,md,us,circle,900,15 minutes,I was in the car; all of a sudden there was a bright orb that emitted another orb and it looped or twisted.,1/10/2014,39.2902778,-76.6125
1/8/2011 21:00,nottingham,md,us,formation,180,3 mins,3 bright objects in sky fly in formation over White Marsh MD,1/31/2011,39.3638889,-76.4525
1/9/1996 04:45,rockville,md,us,NA,660,11 min.,Woman  awakened by a bizarre sound&#44 &quot;like a broken lawn mower.&quot;  Sees a bizarre&#44 elongate obj. w/ bright lights on both ends&#44 middle.,11/2/1999,39.0838889,-77.1530556
2/11/1999 19:00,suitland,md,us,unknown,1800,30 minutes,I went out to enjoy the night sky&#44but saw this bright orangish white object through the tree line above a neighbors house. It slightly,4/2/1999,38.8486111,-76.9241667
2/11/2003 22:05,bishops head,md,us,circle,300,5 minutes,A circle or wheel shape&#44 with what looked like fire around it&#44 and a firey web shaped center.,3/21/2003,38.2680556,-76.0680556
2/11/2004 02:00,linthicum,md,us,cigar,5400,90mins,I live near the bwi airport. Was in the my basement and heard a very low bass sounding noise for 30mins. I decided to take a look outsi,3/2/2004,39.205,-76.6530556
2/1/1989 12:00,waldorf,md,us,oval,3600,1 hour,very large oval -mushroom shaped metallic object&#44moving up and down very fast&#44 then up close moving very slow&#44with a tube looking obj,2/14/2010,38.6244444,-76.9394444
2/1/2002 21:00,elkton,md,us,light,1800,30 minutes,BRIGHT WHITE STROBE LIKE LIGHT WITH A BEAM SHINING DOWN&#44 VERY&#44 VERY LOUD,2/22/2002,39.6066667,-75.8336111
2/1/2012 01:30,burtonsville,md,us,oval,600,10 minutes,Bright orange oval shape traveling slowly through sky near burtonsville and olney maryland at 1:30am feb 1st 2012,2/3/2012,39.1111111,-76.9327778
2/1/2012 21:30,ocean city,md,us,formation,10,10 seconds,An evenly spaced&#44 straight line of lights appear in the sky&#44 dance in a worm-like pattern and fade away.,3/13/2012,38.3363889,-75.0852778
2/12/2009 20:30,columbia,md,us,light,1800,30 min,Very bright orange colored light NNW of MD&#44 USA.  ((NUFORC Note:  Possible sighting of Venus.  PD)),3/19/2009,39.2402778,-76.8397222
2/13/2002 21:00,baltimore county,md,us,light,2,seconds,Blue ball of light flashed across the sky in Northwestern Baltimore County&#44 Maryland.,3/19/2002,39.2902778,-76.6125
2/13/2011 16:35,jacksonville,md,us,triangle,40,40 seconds,Since I&#39m a hunter (waterfowl) when I was what looked like snow geese circling I started to watch close. The sighting was about 1/2 mil,2/18/2011,39.5180556,-76.5597222
2/14/1998 22:50,glen burnie,md,us,oval,300,2-5 min.,I observed a light that I thought was a airplane. As I followed it for a few minutes I looked away few 1 second max. .And when I looked,1/28/1999,39.1625,-76.625
2/14/2003 21:00,baltimore,md,us,cigar,900,15 mins,My brother clock stoped working and then look out his window and saw a Ufo.,3/21/2003,39.2902778,-76.6125
2/14/2005 01:15,baltimore,md,us,light,1200,20 minutes,I went to take my break from work  and I walked out on a balcony for a smoke and looked up in the sky to see if the predicted weather w,2/22/2005,39.2902778,-76.6125
2/14/2011 04:00,pasadena,md,us,other,900,15 minutes,Unexplainable extra large smokey full moon disapears into thin air .,2/18/2011,39.1072222,-76.5713889
2/14/2014 12:20,upper marlboro,md,us,sphere,20,<20 seconds,Two White Spherical Objects,2/21/2014,38.8158333,-76.75
2/15/2004 21:39,rising sun,md,us,sphere,10,10 seconds,Bright white sphere on Sylmar Road,3/2/2004,39.6977778,-76.0630556
2/15/2012 19:43,gaithersburg,md,us,triangle,120,minutes at least,Large triangle red and green lights over Gaithersburg MD&#44 Wed Feb 15&#44 2012 (~19:43),5/13/2012,39.1433333,-77.2016667
2/15/2014 20:12,pasadena,md,us,light,60,1 minute,Three UFOs seen in Maryland 8:12pm est two orange glowing orb shapped one cigar shaped.,2/21/2014,39.1072222,-76.5713889
2/17/2002 21:00,frederick,md,us,disk,300,5 minutes,The ship was studying something on the ground.  ((NUFORC Note:  Student report.  PD)),5/14/2002,39.4141667,-77.4108333
2/17/2014 11:00,bowie,md,us,light,240,3-4 minutes,Bright white light moving rapidly in daytime followed by aircrafts.,2/21/2014,39.0066667,-76.7794444
2/18/2014 22:00,mardela springs,md,us,light,10,10 seconds,One star-like light turned sharp and sped up three-fold straight down towards horizon.,2/21/2014,38.4597222,-75.7594444
2/19/2005 14:35,rockville,md,us,cigar,10,10 seconds,Cigar-shaped object seen for several seconds then disappeared from area of sight.,2/22/2005,39.0838889,-77.1530556
2/19/2014 18:15,huntingtown,md,us,light,240,3-4 minutes,Light in the sky&#44 changing color&#44 too fast and maneuverable for air craft.,2/21/2014,38.6158333,-76.6133333
2/20/2008 22:35,waldorf,md,us,sphere,120,2 minutes,6 White and Red Spheres Suddenly Appear and Disappear Below February&#39s Lunar Eclipse -- Eastern U.S.,3/4/2008,38.6244444,-76.9394444
2/21/2009 22:40,knoxville,md,us,circle,60,1 minute,We saw a circular-shaped UFO flying over the river and mountain.  ((NUFORC Note:  Student report.  PD)),3/19/2009,39.3269444,-77.6644444
2/21/2010 00:00,severn,md,us,disk,120,2 minutes,unknown object drifts over roof line then disappears,4/13/2010,39.1369444,-76.6986111
2/21/2014 23:30,stoney beach,md,NA,chevron,300,5 minutes,Three objects over the water with flashing lights.,2/27/2014,39.172074,-76.522042
2/2/2008 19:00,carney,md,us,light,120,2 minutes,Two bright lights suddenly dim and disappear,2/14/2008,39.3941667,-76.5238889
2/2/2011 20:00,charlotte hall,md,us,light,1200,10-20 minutes,Two sighting&#44 including a single floating orb&#44 and the other including three orbs in a triangular formation.,3/23/2011,38.4808333,-76.7783333
2/22/2003 12:00,silver spring,md,us,changing,18000,1 to 5 hr,Have you ever been abducted?   I have.  My story in detail.,3/21/2003,38.9905556,-77.0263889
2/22/2011 01:45,germantown,md,us,unknown,600,10 minutes,Unable to move encounters of a 4th kind,2/23/2011,39.1730556,-77.2719444
2/23/2002 21:02,columbia,md,us,rectangle,3,3 seconds,We saw a lime green&#44 rectangular shaped light shoot (stagger) across the sky in Columbia&#44 MD on 2/23/02,3/19/2002,39.2402778,-76.8397222
2/23/2002 21:03,leonardtown,md,us,sphere,5,5 secs,We were driving home and saw a greenish round object shooting across the sky in a eastwards direction falling towards the earth.,3/19/2002,38.2911111,-76.6361111
2/24/2001 23:00,baltimore,md,us,formation,1200,20 mins,Hazey&#44 swirling&#44 lights.,4/28/2001,39.2902778,-76.6125
2/24/2005 09:00,edgewater,md,us,sphere,15,15 seconds,object did in fact slow and as quickly as it did so&#44 it slug back in the same direct,4/16/2005,38.9569444,-76.5502778
2/24/2006 19:30,baltimore/windsor hills,md,NA,chevron,600,5 - 10 minutes,3 luminous chevron-like objects silently cruising.,3/11/2006,39.317915,-76.686027
2/24/2014 21:15,belcamp,md,us,changing,60,1 minute,Was taking out trash and a white light which looked like a plane just went across the sky then I saw a little red.,2/27/2014,39.4688889,-76.2336111
2/24/2014 21:35,smithsburg,md,us,other,5,5 seconds,((HOAX??))  Self-luminous object fell&#44 government cars in pursuit.,3/18/2014,39.6547222,-77.5730556
2/25/2004 03:45,bladensburg,md,us,changing,900,1/2 hour,Object was CigarShaped&#44 very bright leaving short &#44thin exhaust vapors. It moved at different speeds could stop on a Dime.,4/9/2004,38.9391667,-76.9341667
2/25/2009 20:25,ridgely,md,us,light,2400,35-40 minutes,A Whitish/Orange Light in the sky made no sound as it traveled overhead.,3/19/2009,38.9477778,-75.8847222
2/25/2013 22:30,frostburg,md,us,chevron,NA,.30 seconds,5 lights in V formation.  Slow rate of speed and noisless.,6/2/2013,39.6580556,-78.9286111
2/25/2014 23:35,frederick,md,us,light,600,10 minutes,&quot;Star&quot; appeared to split into two.,2/27/2014,39.4141667,-77.4108333
2/26/1999 16:45,baltimore (reisterstown road &amp; northern arkway),md,us,rectangle,60,about 1 minute,Rectangular&#44 vertical shaped cloud&#44 did not dissipate&#44 had hole in center and looking lke a rather large floppy disk of the 5&quot; varity.,6/23/1999,39.2902778,-76.6125
2/27/1997 20:00,north beach,md,us,other,6,5-6 seconds,Shooting star&#44Air Fision and then a Small&#44Windshield shaped craft appears out of it.,11/20/2001,38.7072222,-76.5313889
2/27/2009 05:05,bowie,md,us,unknown,4200,1 hr. 10 mins.,Three anomalous stationary lights over Bowie for over an hour.,3/19/2009,39.0066667,-76.7794444
2/27/2014 03:35,churchton,md,us,circle,300,5 minutes,On 2/27/14 at 3:35 AM saw an object made up of round lights which formed a circle of light with rectangle shape in middle of it.,3/18/2014,38.8025,-76.5372222
2/27/2014 20:00,glenelg,md,us,fireball,60,1 minute,Fireball floating slowly low then vanishing.,3/18/2014,39.2641667,-76.9927778
2/29/2004 21:00,brooklyn,md,us,oval,45,30-45sec,Bright light; oval shaped object right in the backyard very close to home and people&#33,3/2/2004,39.2302778,-76.6025
2/3/2002 04:00,baltimore,md,us,circle,22,22 seconds,large round bright object fast moving on camera,2/22/2002,39.2902778,-76.6125
2/4/2014 18:05,west friendship area,md,NA,sphere,240,3-4 minutes,4 dimly white sphere shaped objects; independent rapid movement; at times would form into one object,2/7/2014,39.07061,-75.773335
2/6/2014 17:45,clarksburg,md,us,light,30,30 seconds,Steady bright white light and then it disappeared.,2/14/2014,39.2386111,-77.2797222
2/7/2001 16:00,linthicum (bwi airport),md,us,rectangle,900,15 min,This was not any aircraft I have ever seen and was not ballon or moon.,2/18/2001,39.205,-76.6530556
2/7/2001 18:35,wheaton/kensington,md,NA,changing,995,16:35,SHAPE CHANGING OBJECT IN WASHINGTON DC AREA,2/18/2001,39.039831,-77.055256
2/7/2007 22:15,sugarloaf mtn.,md,NA,light,180,3 min,10:15pm Feb 7th&#44 2007&#44 UFO over SugarLoaf Mtn area&#44 Montgomery County Maryland,2/24/2007,39.269208,-77.395247
2/7/2014 20:55,pasadena,md,us,unknown,20,20 seconds,Two orange glowing lights appeared hovering and slowly descending.,2/14/2014,39.1072222,-76.5713889
2/7/2014 22:40,westminster,md,us,light,300,5 minutes,6 lights in 1-3-1-1 pattern changing speed and position near Westminster&#44 MD.,2/14/2014,39.5752778,-76.9961111
2/8/2005 18:15,owings mills,md,us,triangle,240,4 minutes,Black triangular object without any lights&#44 extremely low speed&#44 approx 400ft off of ground&#44 no sound&#44 right over densly populated area,2/22/2005,39.4194444,-76.7805556
2/9/2009 18:14,baltimore,md,us,rectangle,180,3 minutes,Square and round UFO anomalies imaged over Baltimore Maryland,3/19/2009,39.2902778,-76.6125
2/9/2013 02:50,pasadena,md,us,flash,2,2 seconds,Mega flash of pure white light.,2/18/2013,39.1072222,-76.5713889
2/9/2014 18:00,rockville,md,us,fireball,30,30 seconds,Went outside due to a low flying military helicopter seconds later at a much higher altitude a large fireball appeared falling towards,2/14/2014,39.0838889,-77.1530556
3/10/1999 20:00,glen burnie,md,us,unknown,1800,30 minutes,3 Lights In Triangle Shape...Glen Burnie&#44 MD / Pasadena&#44 MD,2/12/2004,39.1625,-76.625
3/10/2002 03:00,aberdeen,md,us,triangle,1200,15 to 20 min,i worked nights for rite aid distribution center as a yard jockey moving trailers around the yard  to be loaded for the following day.,5/12/2009,39.5094444,-76.1644444
3/10/2004 09:00,baltimore,md,us,unknown,10800,3hours,V shaped slow moving star like,3/17/2004,39.2902778,-76.6125
3/10/2005 13:30,baltimore bwi airport,md,NA,disk,60,1 minute,Three disk shaped objects moving near major airport.,5/11/2005,39.177404,-76.668392
3/10/2014 21:10,hagerstown,md,us,unknown,5,5 seconds,Dark grey or brown&#44 amorphous object&#44 streaking west to east over Hagerstown.,3/18/2014,39.6416667,-77.7202778
3/11/2011 23:10,owings mills/baltimore,md,NA,light,60,1 minute,2 bright white lights sitting above the beltway&#44 not moving whatsoever.,3/23/2011,39.41955,-76.780253
3/1/2014 21:50,riva,md,us,circle,600,8-10 minutes,I witnessed two fast-moving red lights which made no sound.,3/18/2014,38.9519444,-76.5783333
3/12/1995 23:54,cumberland,md,us,unknown,2,couple seconds,extremely loud,6/20/2005,39.6527778,-78.7627778
3/12/1995 23:54,cumberland,md,us,unknown,2,few seconds,march 12&#44 1995 at 23:54 heard a super loud noise like a hundred train engines&#44 but this was coming from the sky.  then i seen a couple,10/12/2001,39.6527778,-78.7627778
3/12/1995 23:54,cumberland,md,us,unknown,2,seconds,March 12&#44 1995 something flew over Cumberland&#44 MD,6/23/2004,39.6527778,-78.7627778
3/12/2003 05:30,easton,md,us,unknown,1200,20 minutes,Caught a possible Alien Abduction and/or Cattle Mutiliation in progress&#44,8/24/2004,38.7741667,-76.0766667
3/12/2005 04:30,gambrills,md,us,unknown,9,9 sec.,brilliant white light flashing on and off at perfect intervals.,5/11/2005,39.0669444,-76.6655556
3/13/2012 20:20,sykesville,md,us,triangle,7200,2 hours,Triangular shaped object with bright lights&#44 dropping orbs&#44 being seen over Sykesville&#44 MD,3/16/2012,39.3736111,-76.9680556
3/13/2012 20:30,dundalk,md,us,unknown,2,1-2 seconds,Small &quot;airplane&quot; like craft&#44 8:30pm&#44 clear sky&#44 object seemed to cloak itself. Saw it for about 1 second before it &quot;cloaked&quot;.,3/16/2012,39.2505556,-76.5208333
3/15/1966 14:00,childs,md,us,circle,20,20sec.,we were driving down the road i look up to the sky&#44 sun was out but&#44there was some clouds around&#44 a big round silver shape was comeing,8/20/2001,39.6461111,-75.8719444
3/18/2007 21:08,annapolis,md,us,light,15,15 sec.,Three craft lights traveling in formation- absolute parallel tracks&#44 approx 075 degrees heading. looked like sattelites&#44 but flying,4/27/2007,38.9783333,-76.4925
3/18/2012 21:50,hagerstown,md,us,sphere,70,65-70 seconds,Red-Orange Orb Sighting in Hagerstown Maryland&#44 USA on 03/18/2012,5/13/2012,39.6416667,-77.7202778
3/19/1999 19:15,baltimore,md,us,formation,60,1 minute,Swirling mass of approximately 12 red to amber lights.,4/2/1999,39.2902778,-76.6125
3/19/2000 22:30,reisterstown,md,us,NA,30,30 seconds maybe,One Object was seen by one person at 10:30 pm. Object appeared to be a oval with a rectangular notch in the front or possibly the back.,4/1/2000,39.4694444,-76.8297222
3/19/2010 21:16,annapolis,md,us,disk,180,3 minutes,UFO Sighting Report  I was doing some night photography at St. John&#8217;s College in Annapolis&#44 Maryland on March 19&#44 2010 at 21:16. I was,4/13/2010,38.9783333,-76.4925
3/20/1956 20:00,bowie,md,us,disk,900,15 min.,Unusual object seen from different viewpoints.,5/13/2003,39.0066667,-76.7794444
3/20/2000 21:00,fort meade,md,NA,fireball,10800,about 2-3 hrs.,flaming crafts seen over Ft. Meade&#44MD around march 20th 2000.,12/2/2000,39.11376,-76.726777
3/20/2010 23:00,eldersburg,md,us,disk,30,30 seconds,Saucer shaped UFO with circularly flashing lights seen seemingly following highway.,4/13/2010,39.4036111,-76.9505556
3/21/2008 21:41,baltimore,md,us,unknown,2,2 seconds,UFO Streaks Past the Moon,3/31/2008,39.2902778,-76.6125
3/2/2007 16:40,churchton,md,us,oval,3,2-3 seconds,An extremely fast oval-shaped object flying at a very high altitude from a southwest to northeast direction.,3/8/2007,38.8025,-76.5372222
3/2/2012 01:50,landover,md,us,triangle,40,40 sec,Saw three bright lights and a hovering craft,3/13/2012,38.9338889,-76.8969444
3/22/1996 08:00,bethesda,md,us,NA,5,5 sec.,Fed. empl. sees extremely bright &quot;cylinder&#44 or the side of something&#44&quot; hovering in sky.  STREAKS off.  Other fed. empls. observe.,11/2/1999,38.9805556,-77.1005556
3/22/2013 22:00,belair,md,NA,circle,8,8 seconds,A green circle with blue trimming and a gold trail behind it.,5/15/2013,39.321528,-76.574831
3/22/2014 20:30,severna park,md,us,oval,300,5 minutes,13 or 14 orange-red Oval shaped lights UFO&#39s in Severna Park Maryland March 22nd 2014 at at 8:25pm.,3/27/2014,39.0702778,-76.5455556
3/25/2013 20:30,waldorf,md,us,triangle,120,2 minutes,A hovering black triangle in a snow storm.,4/12/2013,38.6244444,-76.9394444
3/26/1997 22:10,owings mills,md,us,light,300,5 minutes,Bright white object observed to the Westat about treetop level&#44 gained altitude andflew off silently,3/7/1998,39.4194444,-76.7805556
3/26/1999 23:30,bowie,md,us,light,4,one hour,On 032699 at 2330 hours I noticed a light in the sky that kept changing from red to gree to yellow.  I obseved the light&#44 stationary in,4/26/1999,39.0066667,-76.7794444
3/26/2012 18:24,california,md,us,unknown,180,2-3 min,Two photos in a series where an object can be seen.,5/13/2012,38.3002778,-76.5077778
3/26/2014 03:00,sykesville,md,us,triangle,60,1 minute,Green&#44 red&#44 yellow triangle object near Liberty Dam.,4/4/2014,39.3736111,-76.9680556
3/27/2012 05:00,annapolis,md,us,other,600,10 mins,My husband went out At 5 am and noticed what he called bright brush strokes in the sky that were lit up. Then we both saw it from outsi,5/13/2012,38.9783333,-76.4925
3/27/2012 05:10,ellicott city,md,us,fireball,300,5 minutes,Bright line headed towards ground for half minute then stopped and grew wider and fuzzier,5/13/2012,39.2672222,-76.7986111
3/27/2014 04:30,arnold,md,us,triangle,600,10 minutes,Silent triangle spotted while leaving for work early in the morning.,3/27/2014,39.0319444,-76.5030556
3/27/2014 21:00,frederick,md,us,triangle,1200,20 minutes,Triangular shaped objects flying at high speed (also one stationary) in the area of Fort detrick&#44 MD.,4/4/2014,39.4141667,-77.4108333
3/29/2004 20:00,baltimore,md,us,NA,600,10 minutes,Light on the moon,4/9/2004,39.2902778,-76.6125
3/29/2009 21:40,annapolis,md,us,circle,10,10 seconds,Flaming baseball sized object fell quietly from the dark sky; flamed out at 20 feet above water.((NUFORC Note:  Suspected meteor.  PD)),4/14/2009,38.9783333,-76.4925
3/29/2011 21:00,baltimore,md,us,circle,300,5 min,UNBELIEVABLE&#33,4/3/2011,39.2902778,-76.6125
3/30/1998 22:30,bel air,md,us,formation,5,3-5 sec.,3 round glowing objects in triangle formation in Southern sky approx 22:30 in Southern sky,1/28/1999,39.5358333,-76.3486111
3/30/2007 14:15,rockville,md,us,cigar,15,15 seconds +/-,I was taking a break and laying on the sidewalk in front of our office looking straight up into the sky. The weather was clear&#44 visibil,4/27/2007,39.0838889,-77.1530556
3/30/2008 03:10,hancock (10 miles east),md,us,fireball,5,3-5 sec,Two people witness high speed glowing sphere cross the sky and disappear,3/31/2008,39.6988889,-78.18
3/30/2011 01:45,easton,md,us,triangle,900,10-15 minutes,Black Triangle UFO 4 Lights... 1 Red(Blinking).. 911 Called,5/2/2011,38.7741667,-76.0766667
3/31/2007 06:55,gwynn oak,md,us,disk,180,3 minutes,UFO over Gwynn Oak MD,6/12/2007,39.3325,-76.6930556
3/3/2006 13:00,dunkirk,md,us,other,120,2 minutes,Orb seen hovering in sky&#44 vanished within a few seconds.,3/11/2006,38.7216667,-76.6608333
3/3/2011 20:30,rising sun,md,us,light,180,2 to 3 mins,AT NIGHT 5 OR 6 LIGHTS FORMED A CIRCLE&#44 DESENDED&#44 THAN LIGHTS WENT OUT,3/10/2011,39.6977778,-76.0630556
3/3/2012 21:50,silver spring,md,us,formation,900,15 minutes,For a 15 minute period&#44 30 to 40 crafts were seen.  15 to 20 craft flew in a formation and vanished in the sky.  Then 12-15 craft flew,3/13/2012,38.9905556,-77.0263889
3/4/2011 22:00,elkton,md,us,flash,3,3 seconds,Bright fast moving flash appearing out of nowhere decending at a 45 degree angle lasting for 3 seconds.,3/10/2011,39.6066667,-75.8336111
3/5/2008 22:05,mardela springs,md,us,sphere,300,5 min,((HOAX??))  1 mile wide UFO&#44 with looked like fighters chasing it&#44  we saw 4 some orangeish lights.,3/31/2008,38.4597222,-75.7594444
3/5/2011 20:30,delmar,md,us,circle,4,3-4 seconds,March 5th 2011 (Delmar&#44 MD. 21875) Saturday Night at Approx. 20:30 - Bright Round Object,3/10/2011,38.4558333,-75.5777778
3/6/2000 19:55,silver spring,md,us,other,600,10min,v shape but no lights &#44 very grayand thin type object.,3/7/2000,38.9905556,-77.0263889
3/7/1991 09:00,annapolis,md,us,triangle,10,10sec,I first looked out the window and saw 10 black triangular objects in an eye formation. near a radio tower&#44 and  I and the other  3 memb,6/2/1998,38.9783333,-76.4925
3/7/2000 19:20,gaithersburg,md,us,formation,15,15 seconds,Three yellow/white lights moving in formation in north-south direction&#44 then suddenly shifting positions within the formation.,3/16/2000,39.1433333,-77.2016667
3/7/2000 20:50,severna park,md,us,cigar,5,5 seconds,saw 2 objects flying very fast&#44 at large bird height&#44 not making any noise and dissapeared into thin air.  they flew in different posit,3/16/2000,39.0702778,-76.5455556
3/7/2009 18:00,gaithersburg,md,us,formation,15,about 10 to 15 seconds,&quot;V&quot; formation of 7 very small satellites&#44 or tiny bright lights&#44 traveling fast and directly overhead towards NE,4/14/2009,39.1433333,-77.2016667
3/7/2012 18:10,towson,md,us,unknown,30,about 30 seconds,Very bright object spotted at dusk in Towson&#44 MD,3/13/2012,39.4013889,-76.6022222
3/8/2002 23:49,annapolis,md,us,triangle,5,5 seconds,Three luminous triangles flying in formation,4/8/2002,38.9783333,-76.4925
3/8/2007 12:00,rockville,md,us,disk,240,4 minutes,Second sighting of oval/disk metallic object,4/27/2007,39.0838889,-77.1530556
3/8/2012 01:30,baltimore,md,us,changing,10,10 seconds,Objects were flying together as one&#44 then circled each other and disappeared into the sky,3/13/2012,39.2902778,-76.6125
3/9/2009 06:05,lusby,md,us,sphere,300,5 minutes,Bright White Sphere flying over my house silently.,3/19/2009,38.4105556,-76.4555556
4/10/2012 22:30,frostburg/lavale,md,NA,fireball,2,seconds,Strange blue-green ball of light seen on I68,5/13/2012,39.7012,-78.843179
4/10/2012 22:30,gaithersburg,md,us,fireball,2,2 seconds,Orange fireball over Gaithersburg MD on 04/12/2012,5/13/2012,39.1433333,-77.2016667
4/11/1977 14:00,silver spring,md,us,disk,120,few minutes,Saw a saucer hovering over the&#44 then Hebrew Congregation on Lockwood Drive. It was less than a 100 yds from me&#44 as clear as day.,8/7/2007,38.9905556,-77.0263889
4/11/2001 12:00,college park,md,us,unknown,120,several minutes,Heard booms&#44 saw flashes&#44 and sky was green in that direction,12/23/2002,38.9805556,-76.9372222
4/11/2008 00:15,aberdeen,md,us,other,30,30 seconds,Silent fast moving very dim or possibly lit from reflected ground light&#44 was either 6 or single objects&#44 or one object with 6 discs,4/17/2008,39.5094444,-76.1644444
4/11/2012 20:00,elkridge,md,us,light,1200,20 minutes,Second ufo sighting in same spot in two days,5/13/2012,39.2125,-76.7138889
4/11/2012 23:00,clarksburg,md,us,circle,1420,23:40,UFO Sighting Near Clarksburg&#44 MD,5/13/2012,39.2386111,-77.2797222
4/12/1996 22:08,baltimore,md,us,NA,5,5 sec.,Man sees formation of 10-12 dimly lit amber lights in wedge-formation pass E to W overhead at VERY high speed&#44 like shooting star.,11/2/1999,39.2902778,-76.6125
4/13/2001 13:00,baltimore,md,us,sphere,180,3:00,Observed high flying sphere moving slowly to the NW then blink out.,8/5/2001,39.2902778,-76.6125
4/13/2013 22:23,carney,md,us,light,5,5 seconds,Driving east on I695 toward I95. Right side saw green light in sky. At first thought it was a plane approaching Martin State Airport. W,5/15/2013,39.3941667,-76.5238889
4/14/2007 11:00,annapolis,md,us,sphere,20,20 seconds,Orb seen while driving Route 50 towards Annapolis,4/27/2007,38.9783333,-76.4925
4/14/2014 22:00,parkville,md,us,unknown,120,few minutes,The aircraft was able to stop   then move in a different direction.,4/18/2014,39.3772222,-76.54
4/15/1994 21:00,elkton,md,us,other,180,1-3 minutes,The UFO had Orange and Yellow Lights. 500 Lights On Object0: Yes,1/10/2009,39.6066667,-75.8336111
4/15/1999 23:45,gaithersburg,md,us,oval,20,20 seconds,LOW FLYING BLACK OVAL OBJECT WITH GREEN LIGHTS SEEN FLYING BY THE 270S EXIT OFF OF SHADY GROVE RD. IN GAITHERSBURG MARYLAND.,12/9/2000,39.1433333,-77.2016667
4/16/2004 23:00,belstville,md,NA,fireball,60,one minute,After I park my car&#44 I noticed a red object very high&#44 first I thought it was a planet&#44 then I realized that this object was moving at,5/24/2005,39.034832,-76.907474
4/17/1977 16:30,long green,md,us,disk,900,15 minutes,Black Disc&#44 Light driven,8/5/2001,39.4727778,-76.5233333
4/17/2008 23:15,freeland,md,us,unknown,300,5 minutes,Totally Silent bright white light with no strobe lights or navigation lights&#44 heading in an odd direction.,6/12/2008,39.7047222,-76.6841667
4/17/2010 22:30,ft. meade (south of; i-95),md,NA,disk,2,seconds,Uncertain of what I saw&#44 but what appeared to be a flying saucer sent chills down my spine.,5/12/2010,39.11376,-76.726777
4/17/2011 23:30,westminster,md,us,circle,180,3 minutes,Orange Lighted Object Spotted In Westminster&#44 MD.,5/2/2011,39.5752778,-76.9961111
4/20/2001 02:30,owings mills,md,us,flash,7,5-7 sec,a stationary object appeared in the sky for 10 seconds and its brightness increased over this time and disappeard w/ a trail of light.,8/5/2001,39.4194444,-76.7805556
4/20/2001 02:33,reisterstown,md,us,fireball,3,3 sec,flying fire ball in baltimore county&#44 maryland,8/5/2001,39.4694444,-76.8297222
4/20/2006 09:10,silver spring,md,us,cigar,300,5 min.,Metalic cigar shaped objects passing over one another in Silver Sping Maryland.,5/15/2006,38.9905556,-77.0263889
4/20/2013 22:20,shady side,md,us,fireball,600,10 minutes,Red and orange fireball lasting for 2-3 minutes before moving out of sight. a second one flew by 30 min. later.,5/15/2013,38.8416667,-76.5125
4/20/2014 09:20,clarksburg,md,us,fireball,900,15 minutes,8 Fireball like moving objects sighted over Clarksburg&#44 MD.,4/24/2014,39.2386111,-77.2797222
4/21/2009 21:25,gaithersburg,md,us,circle,1800,30 minutes,5 bright lights in the sky in a straight line,5/12/2009,39.1433333,-77.2016667
4/2/2002 22:35,annapolis,md,us,other,45,3/4 seconds,While on my balcony&#44 I watched flights&#44 some local&#44 some commercial. Thje sky was slightly overcast with high haze&#44 moving west to east,4/8/2002,38.9783333,-76.4925
4/2/2008 00:15,new carrollton,md,us,triangle,180,1-3 minutes,Last night I saw something unusual in the night sky&#44 this was not natural by any means it  happened very quickly but I saw enough to kn,4/17/2008,38.9697222,-76.8802778
4/2/2014 02:10,baltimore city,md,NA,other,180,2-3 minutes,Dark gray cresent/circular shape flying object in late night sky.,4/4/2014,39.290385,-76.612189
4/22/2006 17:00,hanover,md,us,disk,30,30 seconds,we were celebrating my 35th birthday&#44 (having a cookout) and at about 5 PM Eastern Time&#44 myself and 2 other people witnessed a &quot;disk&quot; m,5/15/2006,39.1927778,-76.7244444
4/22/2014 20:30,aberdeen,md,us,disk,1800,30 minutes,Staring out my window across the Susquehanna River I see a humongous object with 4 lights.  I looked through my binoculars.,4/24/2014,39.5094444,-76.1644444
4/23/2001 01:15,burtonsville,md,us,circle,120,2 minutes,very low slow flying&#44 very strange sounding craft near DC,4/28/2001,39.1111111,-76.9327778
4/23/2002 13:00,berkley springs,md,NA,disk,120,2.00 min.,Bright disk in sky,10/20/2005,39.62699,-78.227196
4/23/2008 00:30,towson,md,us,triangle,120,2 min,Triangular object&#44 no lights or engines&#44 completely silent,6/12/2008,39.4013889,-76.6022222
4/23/2010 15:40,hagerstown,md,us,formation,300,5 minutes,multiple objects in large formation in the afternoon,5/12/2010,39.6416667,-77.7202778
4/24/2008 22:45,eldersburg/randallstown,md,NA,other,60,1 minute,Two Star-Like Craft Hover Over Randallstown/ Eldersburg Area&#44 Dim down simultaneously and leave.,6/12/2008,39.367328,-76.795252
4/25/2000 00:30,wheaton,md,us,circle,180,3 minutes,19 yr old man describes UFO sights in Maryland at night and in broad daylight.,2/18/2001,39.0397222,-77.0555556
4/28/2012 21:00,mount airy (vicinity),md,us,light,240,3-4 minutes,Formation of gold moving lights,5/13/2012,39.3761111,-77.155
4/28/2013 10:30,largo,md,us,sphere,180,3 minutes,4/29/13 Im located in Largo&#44 Md. I am a building Engineer last night around 10:40 I was called in due to my Parking lot lights had lost,5/15/2013,38.8975,-76.8305556
4/29/2007 20:50,boonsboro,md,us,disk,60,45 seconds to a minute,UFO observed near Boonsboro&#44 MD in the evening.,6/12/2007,39.5061111,-77.6527778
4/29/2007 21:45,boonsboro,md,us,rectangle,120,2 minutes,Square lights above South Mountain in Boonsboro&#44 MD at 21:45.,6/12/2007,39.5061111,-77.6527778
4/30/2001 20:00,baltimore,md,us,light,1500,25 minutes,Slashes of light in an oval shape off of I-895 in mid-spring.,8/5/2001,39.2902778,-76.6125
4/3/1998 07:30,waldorf,md,us,circle,450,7:30,green light headed north very fast,9/6/2002,38.6244444,-76.9394444
4/3/2003 03:10,dundalk,md,us,other,300,5 minutes,THE OBJECT WAS STATIONARY FOR CLOSE TO THE 2 MILES IT TOOK FOR ME TO APPROACH IT AND THE WAS NO SOUND COMING FROM THE OBJECT,4/22/2003,39.2505556,-76.5208333
4/3/2009 14:30,catonsville,md,us,sphere,20,20 seconds,Round&#44 silvery object floating over Catonsville MD.,4/14/2009,39.2719444,-76.7322222
4/4/2014 22:15,frederick,md,us,light,300,5 minutes,Brilliant blue pinpoint of light fading in and out.,4/11/2014,39.4141667,-77.4108333
4/5/1999 21:40,baltimore,md,us,fireball,3,3 seconds,My husband and I were traveling north on Rt. 295&#44 leaving Baltimore Washington Airport.  When looking north to the city of Baltimore&#44 w,4/26/1999,39.2902778,-76.6125
4/5/2000 22:00,ocean city,md,us,disk,240,4 minutes,We saw two strange lights coming up over the ocean. The lights (that were alternating blue&#44 red and white) were at the same height but,4/15/2000,38.3363889,-75.0852778
4/5/2007 21:30,bel air,md,us,egg,2400,40 mins,Large glowing egg shaped light that rotates.  At certain points in its rotation&#44 you could see dozens of lights.,4/27/2007,39.5358333,-76.3486111
4/5/2009 02:45,clarksville,md,us,cigar,300,5 minutes,Large Mettalic Object making no sounds with red and green lights hovering by power lines moves away fast&#33,4/14/2009,39.2063889,-76.9433333
4/5/2013 18:47,westover,md,us,other,300,5 minutes,Driving along Route 413&#44 heading out of town I saw an unusual shaped object heading North. The object was a half star it consisted of t,5/15/2013,38.1238889,-75.7066667
4/5/2013 19:00,jarrettsville,md,us,circle,900,15 minutes,Circular&#44 but not connected at the ends. It had rungs and was just like a ladder bent into the shape of a circle.,11/20/2013,39.6044444,-76.4780556
4/5/2014 11:00,oxford,md,us,cigar,30,30 seconds,Missile type object flying over Maryland.,4/11/2014,38.6863889,-76.1719444
4/6/2006 20:15,baltimore,md,us,unknown,180,3 min,stayed still then shot straight up then disapeared then reapeared to the left at a higher attitude.,7/16/2006,39.2902778,-76.6125
4/7/2013 02:00,williamsport,md,us,light,7200,2 hours,Red&#44 Blue &amp; White Strobes Stationary in the Night Sky.,5/15/2013,39.6005556,-77.8208333
4/8/2005 22:45,hagerstown,md,us,unknown,600,about 10 min.,The hospital is 8 stories and when it became directly over our heads we could tell it was only 50 or 60 more feet high.,4/16/2005,39.6416667,-77.7202778
4/8/2007 21:05,baltimore,md,us,light,8,8 seconds,Stationary white light then picking up speed from the east to the west; arcing across sky; too fast for plane,4/27/2007,39.2902778,-76.6125
4/9/2004 10:02,ellicott city,md,us,other,60,1 minute,alien sited walking dog in ellicott city&#44md 04/09/04,4/27/2004,39.2672222,-76.7986111
4/9/2004 22:14,owings mills,md,us,chevron,10,about 10 sec.,A boomerang shaped UFO with lighted edges flies by Oryan&#39s (spelling) Belt.,4/27/2004,39.4194444,-76.7805556
4/9/2011 00:15,annapolis,md,us,circle,600,10 minutes,Stationary light over Annapolis&#44 MD,5/2/2011,38.9783333,-76.4925
4/9/2012 09:00,arbutus,md,us,light,180,2-3 mintues,I was walking my friend to the bus stop when i noticed four bright lights in the sky. They were pretty far away but it seemed as though,5/13/2012,39.2544444,-76.7002778
4/9/2012 21:00,elkridge,md,us,disk,4200,70 minutes,Five bright lights seen over elkridge&#44 md. two of them seen through binoculars in great detail,4/18/2012,39.2125,-76.7138889
5/10/2005 14:45,columbia,md,us,sphere,60,1 minute,two silver ballls over skies in howad county vanish one by one,3/11/2006,39.2402778,-76.8397222
5/1/1969 20:00,wheaton,md,us,disk,30,30 seconds,large saucer-shaped  object sighted in Wheaton&#44 MD in late 1960&#39s,1/29/2002,39.0397222,-77.0555556
5/1/1973 09:00,gaithersburg,md,us,disk,240,3-4 minutes,Disk-shaped object with sequentially-flashing green lights around the perimeter -- 5/73 -- flying low.,12/16/2005,39.1433333,-77.2016667
5/1/1973 20:00,rockville,md,us,other,120,2min`s,MY WIFE AND I WERE TO PICK UP MY MOTHER AT WORK IT WAS ON MARYLAND AVE.THAT WE SAW THE FIRST ONE IT WAS REALY BIG LIKE AN AIR PLANE I 7,7/11/2000,39.0838889,-77.1530556
5/1/2007 22:00,gaithersburg,md,us,triangle,900,15 minutes,I saw several flying lights heading from north to south.  ((NUFORC Note:  Report from student.  PD)),6/12/2007,39.1433333,-77.2016667
5/1/2013 00:00,rockville,md,us,triangle,300,3-5 minutes,Green triangle&#44 and flashing lights.,9/9/2013,39.0838889,-77.1530556
5/13/2006 23:40,baltimore,md,us,light,1200,20+ minutes,Multiple UFO&#39s flying over Baltimore Inner Harbor,5/15/2006,39.2902778,-76.6125
5/13/2008 23:00,wheaton,md,us,fireball,3,3 seconds,I was driving East on University Blvd. in Wheaton Md. between Georgia ave. and Viersmill Rd. and saw a fireball with a tail going in a,6/12/2008,39.0397222,-77.0555556
5/15/1963 14:00,towson,md,us,oval,20,20 seconds,Bright&#44 rapidly moving object moving from east to west that reflected the sun as it made a slight turn to the Southwest.,3/21/2003,39.4013889,-76.6022222
5/15/1976 19:00,hydes,md,us,changing,1200,20min.,this craft was 1000ft. in diameter. when it came over us&#44 it stopped and then split into 4 wedge shapped craft. it split into 4&#44 then l,6/23/1999,39.4838889,-76.4936111
5/15/1988 15:00,edgewood,md,us,sphere,45,45 seconds,Edgewood&#44 MD boy sees a chrome sphere move laterally across sky and change directions near the Edgewood Arsenal Army base.,1/3/2001,39.4186111,-76.2947222
5/15/2004 00:30,towson,md,us,NA,2100,35 mins +,Second hand report from first party witness with multiple craft sighting &amp; close encounter contact with grey,7/25/2004,39.4013889,-76.6022222
5/15/2006 23:00,baltimore,md,us,egg,900,15+ mins.,Stationary long objet with dome in middle.  Red/orange &amp; blue lights kept shining with varying degrees of intensity.,7/16/2006,39.2902778,-76.6125
5/15/2007 12:00,centreville,md,us,other,300,5 min.,just above the treeline i saw a silver globe (not perfectly shaped) it had a heat type haze around it.  it was perfectly still and was,1/21/2008,39.0416667,-76.0666667
5/18/2008 22:00,salisbury,md,us,unknown,5,5 seconds,While sitting outside and taking a smoke break my freind and i witnessed a large flash through the clouds. It was blueish white and rad,6/12/2008,38.3605556,-75.5997222
5/18/2012 00:00,potomac,md,us,light,1200,20 minutes,Bright yellow light followed (intercepted) by red pulsating light,2/4/2013,39.0180556,-77.2088889
5/20/2002 22:00,baltimore,md,us,changing,600,10 minutes,I observed it through my telescope. It changed shapes every 2 to 3 seconds. First an egg shape&#44 then disc&#44 and finally a triangle. It a,6/12/2002,39.2902778,-76.6125
5/20/2010 13:46,assateague island,md,NA,cylinder,1800,30 minutes,Long Dark Gray Crayon Shaped Object,6/10/2010,38.060797,-75.236238
5/20/2010 22:10,boonsboro,md,us,oval,1200,20 min,A large ball of pulsating light with 2 smaller flashes of light shooting out from the sides then disappearing.,6/3/2010,39.5061111,-77.6527778
5/24/1996 23:05,bowie,md,us,NA,3,3 sec.,FAA empl.&#44 several adults see very bright disc &quot;w/ a dark hole in the middle.&quot;  2x diam. of moon. Obj. hovered&#44 suddenly disappeared.,11/2/1999,39.0066667,-76.7794444
5/24/2013 23:00,capitol heights,md,us,formation,900,15 minutes,lights were seen on 214 in formation,6/2/2013,38.885,-76.9161111
5/26/2001 22:00,white hall,md,us,light,2700,45 min (intermittent),A wwhite flashing UFO zipping below storm clouds.,8/5/2001,39.6216667,-76.6288889
5/26/2007 21:10,westminster,md,us,fireball,300,5 mins,A huge Fireball changing shape and colors captured on video while moving over our house&#33.,6/12/2007,39.5752778,-76.9961111
5/26/2013 21:30,lisbon,md,us,changing,180,3 minutes,Definitely caught my eye in the night sky&#33 Other people had to of seen this&#33,6/2/2013,39.3361111,-77.0713889
5/27/2001 21:30,white hall,md,us,light,900,15 mins.,The white lights were back again&#33,8/5/2001,39.6216667,-76.6288889
5/28/2011 04:24,westminster,md,us,changing,840,14 mins,Intensely bright&#44 crescent shape to round in SE night sky,8/7/2011,39.5752778,-76.9961111
5/28/2011 23:15,cockeysville,md,us,light,60,1 min,Bright ball of light moving upward very fast eventually becoming a speck before disappearing within seconds,5/29/2011,39.4811111,-76.6441667
5/28/2012 21:30,westminster,md,us,sphere,900,15 minutes,Sphere shaped orange glowing object in the night sky,5/29/2012,39.5752778,-76.9961111
5/29/2009 23:03,parkville,md,us,disk,50,50 seconds,Baltimore&#44 Maryland May 29&#442009 sphere that traveled from west to east.,6/9/2009,39.3772222,-76.54
5/29/2013 20:47,chaptico,md,us,unknown,45,45 seconds,Saw black speck high in the clear sky which moved in a different direction&#44 hovered&#44 and then disappeared.,6/2/2013,38.3675,-76.7833333
5/29/2013 23:15,millers,md,us,light,840,14 minutes,White Light Nortwest Baltimore County (Millers),6/2/2013,39.6711111,-76.8513889
5/30/2013 21:45,white marsh,md,us,light,240,4 minutes,Green strobing light over Walmart in white marsh&#8230;,6/2/2013,39.3836111,-76.4325
5/30/2013 21:48,parkville/fullerton,md,NA,light,60,<1 minute,Numerous green lights form line then scatter&#44 followed by loud boom.,6/2/2013,39.371774,-76.511075
5/30/2013 21:55,nottingham,md,us,unknown,120,2 minutes,There was no tail to the objects and they were all moving in unison wi th each other&#44,6/2/2013,39.3638889,-76.4525
5/30/2013 21:55,nottingham,md,us,unknown,120,2 minutes,There was no tail to the objects and they were all moving in unison wi th each other.,6/2/2013,39.3638889,-76.4525
5/3/2007 21:30,abingdon,md,us,triangle,120,several minutes,A triangular shaped craft was seen hovering&#44 and moving very slowly over a neighborhood in Abingdon&#44 MD.,6/12/2007,39.4622222,-76.2794444
5/3/2007 21:30,abingdon,md,us,triangle,120,several minutes,Triangle craft seen &quot;hovering&quot; and moving very slowly.  There was one row of 3-4 lights lit up on one side of the craft.,6/12/2007,39.4622222,-76.2794444
5/5/1958 20:00,palmer park,md,us,sphere,1200,15-20 min.,I saw a white spherical light zig zaging across the sky leaving a plasma trail at unthinkable speed.,4/22/2003,38.9208333,-76.8719444
5/5/1966 17:00,beltsville,md,us,sphere,120,2minutes,Green sphere speeding across the sky in 1960&#39s,4/16/2005,39.0347222,-76.9077778
5/5/2008 10:30,baltimore,md,us,unknown,300,5 minutes,Strange lights dancing in a strobe pattern from west to east.,6/12/2008,39.2902778,-76.6125
5/6/2007 12:30,waldorf,md,us,cigar,300,5 min,Hovering cigar shaped object.,6/12/2007,38.6244444,-76.9394444
5/8/2004 23:40,knoxville,md,us,triangle,120,1-2 minutes,Large triangle of three lights noislessly moves from West to East - occludes stars - fades rapidly.,5/10/2004,39.3269444,-77.6644444
6/10/1970 17:00,princess anne,md,us,oval,300,5 min,Bright orange disk with vertical stripes&#44 or ribs.  Eastern Maryland.,6/18/2004,38.2027778,-75.6927778
6/10/1970 21:00,west ocean city,md,us,light,60,less than one minute,Sighting to the North of Ocean City&#44 Maryland at about the same date as that in Princess Anne&#44 MD,4/16/2005,38.3363889,-75.0852778
6/10/1971 10:00,allen,md,us,sphere,900,15 min,The ufo was above this radio tower. Me and my mom were watching it. It was about a half mile away as the crow flies.  The ufo started t,10/30/2006,38.2872222,-75.6883333
6/10/1986 21:00,severn,md,us,triangle,120,2 mins,myself and another person witnessd what appeared to be a glowing boomerang fly directly overhead of us with no sound or lights.,2/27/2000,39.1369444,-76.6986111
6/11/1993 01:00,lusby,md,us,other,32400,9 hours,Possible alien encounter and or abduction in 1993.,8/5/2012,38.4105556,-76.4555556
6/11/2013 17:45,frederick,md,us,cigar,5,5 seconds,Reddish-Brown Cigar-Shaped Object Flies Over Frederick&#44 MD.,7/3/2013,39.4141667,-77.4108333
6/1/1966 19:30,district heights,md,us,disk,300,3 to 5 minutes,Observed UFO Sighting which stopped my moving vehicle on a lonely&#44 tree lined road.,7/5/2008,38.8575,-76.8897222
6/1/1967 24:00,oxen hill,md,NA,sphere,2700,45 min.,Sightings in the Washington D.C. area&#44 number of crafts seen 3 but farther in space formation of lights. There were a number of sightin,1/22/2000,38.803056,-76.989722
6/1/1977 23:45,gaithersburg,md,us,cigar,60,60 seconds,Close encounter with metallic craft near Gaithersburg&#44 MD in 1977,5/15/2006,39.1433333,-77.2016667
6/1/1980 22:00,marlow heights,md,us,light,3600,1 hour,Appeared to be a star moving at great speed&#44 breaking up&#44 disappearing then reappearing in another location.  Very erratic behavior.,12/16/1999,38.8333333,-76.9519444
6/1/1982 00:00,oakland,md,us,light,60,1 minute,Bright light in woods moves toward witness; witness was left disoriented.,5/15/2006,39.4077778,-79.4069444
6/1/1986 19:00,greenbelt,md,us,unknown,600,> 10 mins,Low&#44 slow moving craft over NASA Goddard Space Flight Center,5/11/2005,39.0044444,-76.8758333
6/1/1988 21:00,potomac,md,us,circle,3,3 secs,Large orange ball traveled fast in night sky and then disappeared,10/31/2008,39.0180556,-77.2088889
6/1/1989 23:00,upper marlboro,md,us,disk,300,5 minutes,This account was seen by my mother and step father. I have interviewed them numerous times and just last night I questioned them again,10/30/2006,38.8158333,-76.75
6/1/1990 20:00,maryland,md,NA,triangle,3600,1hr,The craft was Triangular&#44one story thick&#44in the middle was a half sphere   &#44and it made a deep humming sound.,8/5/2001,39.045755,-76.641271
6/1/1993 06:30,crofton,md,us,other,60,1 minutes or less,Blimp shaped craft with lights and orange glowing bottom.,3/19/2009,39.0016667,-76.6877778
6/1/1996 05:30,beltsville,md,us,triangle,1,1 sec,two small triangular craft very fast and absolutly silent,7/5/1999,39.0347222,-76.9077778
6/1/1997 24:00,baltimore,md,us,chevron,900,15mins,Object was &quot;V&quot; shaped&#44white  with no rounded edges travelling south east in daylight.with no visible engines or markings.,11/28/2007,39.2902778,-76.6125
6/1/1998 22:00,cockeysville,md,us,unknown,120,2 minutes,I HAD SENT TO YOU THE PHOTO OF THIS EVENT. I NEVER EVEN RECEIVED A THANKS OR AT LEAST A COMMENT.  IT WAS A GOOD PHOTO OF THE STRANGE PH,11/21/2010,39.4811111,-76.6441667
6/12/1996 03:00,annapolis,md,us,NA,600,10 min,Saw a perfect round light changing colors. No sound,3/19/2009,38.9783333,-76.4925
6/12/1999 12:03,tomonium,md,NA,other,180,3 min.,Black-Shape simular to a U2-Very large-Silent-Seemed at first to be standing still&#44 but in reality moving slowly.,5/11/2000,39.440556,-76.626111
6/12/2010 01:00,taneytown,md,us,circle,2,seconds,green glowing circle shooting across sky and nightly white light,6/23/2010,39.6577778,-77.1747222
6/13/2004 21:00,crisfield,md,us,sphere,120,2 minutes+,It was  a UFO  About 9:30pm&#44 I was just happed to be outside and I saw this--- Just a red-sphere&#44 that I seen before...I have seen many,6/18/2004,37.9833333,-75.8541667
6/13/2011 20:00,annapolis,md,us,cylinder,900,fifteen minutes,White cylinders with fins moving over Eastport&#44 Annapolis.,6/20/2011,38.9783333,-76.4925
6/13/2012 09:00,frederick,md,us,circle,20,about 20sec,Military transporting ufo on route 270 in md.  ((NUFORC Note:  It was reported as a piece of U. S. Navy military equipment.  PD)),6/14/2012,39.4141667,-77.4108333
